[{"Bezirk": "Harburg", "art": 3, "Nummer": "34", "PLZ": "21077", "tempo30": 1, "Strasse": "Am Frankenberg", "lat": 53.43802815, "Name": "Haus am Frankenberg", "id": 0, "lon": 9.98145757437306}, {"Bezirk": "Hamburg-Mitte", "art": 1, "Nummer": "25", "PLZ": "20457", "tempo30": 1, "Strasse": "Am Hannoverschen Bahnhof", "lat": 53.54260630355745, "Name": "Kinderhaus HafenCity", "id": 1, "lon": 10.005707401991405}, {"Bezirk": "Hamburg-Mitte", "art": 2, "Nummer": "9", "PLZ": "21107", "tempo30": 1, "Strasse": "Am Veringhof", "lat": 53.5138919, "Name": "Freie Schule Hamburg e.V.", "id": 2, "lon": 9.9851689}, {"Bezirk": "Hamburg-Mitte", "art": 1, "Nummer": "8", "PLZ": "20354", "tempo30": 1, "Strasse": "Amelungstra\u00dfe", "lat": 53.5528904872237, "Name": "KiTa Kinderzimmer ConventParc", "id": 3, "lon": 9.98575346020071}, {"Bezirk": "Wandsbek", "art": 2, "Nummer": "15", "PLZ": "22041", "tempo30": 1, "Strasse": "B\u00e4renallee", "lat": 53.5696879, "Name": "Friedrich-Robbe-Institut", "id": 4, "lon": 10.0633920944697}, {"Bezirk": "Wandsbek", "art": 3, "Nummer": "19", "PLZ": "22041", "tempo30": 1, "Strasse": "B\u00e4renallee", "lat": 53.5697662, "Name": "Senioren-Pflegepension B\u00e4renallee Dieter Wurm", "id": 5, "lon": 10.0637770799574}, {"Bezirk": "Altona", "art": 2, "Nummer": "1", "PLZ": "22761", "tempo30": 1, "Strasse": "Bei der Paul-Gerhardt-Kirche", "lat": 53.5609035, "Name": "Max-Brauer-Schule", "id": 6, "lon": 9.92256212001676}, {"Bezirk": "Wandsbek", "art": 1, "Nummer": "1", "PLZ": "22395", "tempo30": 1, "Strasse": "Bergstedter Markt", "lat": 53.67075055, "Name": "KiTa Entengarten im Siemers'schen Hof", "id": 7, "lon": 10.1242672362476}, {"Bezirk": "Wandsbek", "art": 1, "Nummer": "512", "PLZ": "22159", "tempo30": 1, "Strasse": "Berner Heerweg", "lat": 53.63427275, "Name": "Kinderhaus Volksdorf", "id": 8, "lon": 10.1472162337038}, {"Bezirk": "Altona", "art": 1, "Nummer": "4", "PLZ": "22761", "tempo30": 1, "Strasse": "Bertrand-Russell-Stra\u00dfe", "lat": 53.5759483, "Name": "Integrative Bewegungskindertagesst\u00e4tte", "id": 9, "lon": 9.8863328}, {"Bezirk": "Hamburg-Mitte", "art": 1, "Nummer": "52", "PLZ": "22111", "tempo30": 1, "Strasse": "Billstedter Hauptstra\u00dfe", "lat": 53.5395641, "Name": "KiTa Billstedt Zentrum", "id": 10, "lon": 10.1025906975499}, {"Bezirk": "Bergedorf", "art": 1, "Nummer": "609", "PLZ": "21033", "tempo30": 1, "Strasse": "Billwerder Billdeich", "lat": 53.4966682, "Name": "KiTa Sportini, Sport- und\nBewegungskindertagesst\u00e4tte", "id": 11, "lon": 10.1831592}, {"Bezirk": "Harburg", "art": 1, "Nummer": "31", "PLZ": "21075", "tempo30": 1, "Strasse": "Bissingstra\u00dfe", "lat": 53.46744995, "Name": "KiTa Bissingstra\u00dfe", "id": 12, "lon": 9.96490932912184}, {"Bezirk": "Harburg", "art": 1, "Nummer": "22", "PLZ": "21079", "tempo30": 1, "Strasse": "Blohmstra\u00dfe", "lat": 53.4664705, "Name": "elbzwerge Kita Villa Lengemann", "id": 13, "lon": 9.98120310737739}, {"Bezirk": "Altona", "art": 1, "Nummer": "11", "PLZ": "22767", "tempo30": 1, "Strasse": "Bl\u00fccherstra\u00dfe", "lat": 53.5501416, "Name": "KiTa Taka-Tuka-Land Hamburg", "id": 14, "lon": 9.9482998}, {"Bezirk": "Altona", "art": 1, "Nummer": "35", "PLZ": "22767", "tempo30": 1, "Strasse": "Bl\u00fccherstra\u00dfe", "lat": 53.55046325, "Name": "KiTa der Rudolf Steiner Schule Altona", "id": 15, "lon": 9.94797502466066}, {"Bezirk": "Hamburg-Nord", "art": 1, "Nummer": "27", "PLZ": "22453", "tempo30": 1, "Strasse": "Borsteler Bogen", "lat": 53.6119829, "Name": "KiGa Alsterkinder e.V.", "id": 16, "lon": 9.97158241160715}, {"Bezirk": "Harburg", "art": 1, "Nummer": "2", "PLZ": "21079", "tempo30": 1, "Strasse": "Bostelbeker Damm", "lat": 53.4737245474539, "Name": "KiTa Sternenkinder e.V.", "id": 17, "lon": 9.936294719403103}, {"Bezirk": "Wandsbek", "art": 1, "Nummer": "23a", "PLZ": "22159", "tempo30": 1, "Strasse": "Bramfelder Weg", "lat": 53.607724238846906, "Name": "Ev. KiTa Farmsen-Berne", "id": 18, "lon": 10.114613193234504}, {"Bezirk": "Bergedorf", "art": 1, "Nummer": "12", "PLZ": "21029", "tempo30": 1, "Strasse": "Brookkehre", "lat": 53.48085195, "Name": "KiGa Waldorf Kindergarten Bergedorf", "id": 19, "lon": 10.2198869022727}, {"Bezirk": "Wandsbek", "art": 1, "Nummer": "10", "PLZ": "22359", "tempo30": 1, "Strasse": "Buchenkamp", "lat": 53.6466594, "Name": "KiTa Ferckscher Hof", "id": 20, "lon": 10.1867667}, {"Bezirk": "Hamburg-Mitte", "art": 1, "Nummer": "92", "PLZ": "20539", "tempo30": 1, "Strasse": "Bullenhuser Damm", "lat": 53.5420468, "Name": "KiTa Sonnenschein", "id": 21, "lon": 10.0475484}, {"Bezirk": "Wandsbek", "art": 3, "Nummer": "17", "PLZ": "22047", "tempo30": 1, "Strasse": "Bullenkoppel", "lat": 53.59405545, "Name": "Senator Ernst Wei\u00df Haus f\u00fcr Sehbehinderte und\nBlinde", "id": 22, "lon": 10.0938675110335}, {"Bezirk": "Eimsb\u00fcttel", "art": 1, "Nummer": "25", "PLZ": "20146", "tempo30": 1, "Strasse": "Bundesstra\u00dfe", "lat": 53.56548081522684, "Name": "KiTa Cocori", "id": 23, "lon": 9.97957523729169}, {"Bezirk": "Hamburg-Mitte", "art": 1, "Nummer": "8", "PLZ": "20355", "tempo30": 1, "Strasse": "Caffamacherreihe", "lat": 53.5554253, "Name": "KiTa Kinderzimmer Valentinshof", "id": 24, "lon": 9.9845199}, {"Bezirk": "Bergedorf", "art": 1, "Nummer": "263", "PLZ": "21039", "tempo30": 1, "Strasse": "Curslacker Heerweg", "lat": 53.47396965, "Name": "KiTa Schmusebacke 3", "id": 25, "lon": 10.2386833004008}, {"Bezirk": "Hamburg-Nord", "art": 1, "Nummer": "48", "PLZ": "22299", "tempo30": 1, "Strasse": "Dorotheenstra\u00dfe", "lat": 53.58234845, "Name": "KiTa KMK Kinderzimmer Dorotheenstra\u00dfe\nGmbH", "id": 26, "lon": 10.0089932858951}, {"Bezirk": "Altona", "art": 1, "Nummer": "26", "PLZ": "22547", "tempo30": 1, "Strasse": "Eckhoffplatz", "lat": 53.5917176, "Name": "KiTa Kinderland Lurup", "id": 27, "lon": 9.87392895825488}, {"Bezirk": "Eimsb\u00fcttel", "art": 1, "Nummer": "75", "PLZ": "20255", "tempo30": 1, "Strasse": "Eidelstedter Weg", "lat": 53.5821987, "Name": "KiTa Kinderk\u00f6nigreich", "id": 28, "lon": 9.9481378}, {"Bezirk": "Eimsb\u00fcttel", "art": 1, "Nummer": "107", "PLZ": "20255", "tempo30": 1, "Strasse": "Eidelstedter Weg", "lat": 53.5820934, "Name": "KiTa Kinderhaus 4Zeiten", "id": 29, "lon": 9.9437669}, {"Bezirk": "Eimsb\u00fcttel", "art": 1, "Nummer": "63", "PLZ": "20255", "tempo30": 1, "Strasse": "Eidelstedter Weg", "lat": 53.5822598, "Name": "KiTa Bollerwagen", "id": 30, "lon": 9.9494941}, {"Bezirk": "Eimsb\u00fcttel", "art": 1, "Nummer": "21", "PLZ": "20259", "tempo30": 1, "Strasse": "Eimsb\u00fctteler Chaussee", "lat": 53.5663359, "Name": "KiTa Krippe Wurzelkinder", "id": 31, "lon": 9.9569557}, {"Bezirk": "Eimsb\u00fcttel", "art": 1, "Nummer": "24", "PLZ": "20259", "tempo30": 1, "Strasse": "Eimsb\u00fctteler Chaussee", "lat": 53.5666858, "Name": "Ev. KiTa Christuskirche", "id": 32, "lon": 9.95890238125786}, {"Bezirk": "Eimsb\u00fcttel", "art": 1, "Nummer": "57", "PLZ": "20259", "tempo30": 1, "Strasse": "Eimsb\u00fctteler Chaussee", "lat": 53.56794245, "Name": "KiTa Zauberzeit\u00b2", "id": 33, "lon": 9.95575864957928}, {"Bezirk": "Eimsb\u00fcttel", "art": 1, "Nummer": "86", "PLZ": "20259", "tempo30": 1, "Strasse": "Eimsb\u00fctteler Chaussee", "lat": 53.56879935, "Name": "KiGa Lek s\u00e4 in i Norden", "id": 34, "lon": 9.9557855482571}, {"Bezirk": "Eimsb\u00fcttel", "art": 1, "Nummer": "28", "PLZ": "20259", "tempo30": 1, "Strasse": "Eimsb\u00fctteler Chaussee", "lat": 53.5671737, "Name": "Integrationskindergarten Wurzelkinder", "id": 35, "lon": 9.9578891}, {"Bezirk": "Bergedorf", "art": 1, "Nummer": "6", "PLZ": "21037", "tempo30": 1, "Strasse": "Elversweg", "lat": 53.4734741, "Name": "KiTa Kinderhaus Elversweg", "id": 36, "lon": 10.0782381978215}, {"Bezirk": "Eimsb\u00fcttel", "art": 1, "Nummer": "12", "PLZ": "20259", "tempo30": 1, "Strasse": "Eppendorfer Weg", "lat": 53.56869355, "Name": "KiTa Zauberzeit", "id": 37, "lon": 9.95685977537484}, {"Bezirk": "Eimsb\u00fcttel", "art": 1, "Nummer": "163", "PLZ": "20253", "tempo30": 1, "Strasse": "Eppendorfer Weg", "lat": 53.579294, "Name": "KiTa Kinderperle", "id": 38, "lon": 9.96527658848379}, {"Bezirk": "Eimsb\u00fcttel", "art": 1, "Nummer": "185", "PLZ": "20253", "tempo30": 1, "Strasse": "Eppendorfer Weg", "lat": 53.5804465, "Name": "KiTa Kinderkrippe 100 Blumen", "id": 39, "lon": 9.96791781428571}, {"Bezirk": "Eimsb\u00fcttel", "art": 1, "Nummer": "205", "PLZ": "20253", "tempo30": 1, "Strasse": "Eppendorfer Weg", "lat": 53.5812966, "Name": "KiTa Die Strolche", "id": 40, "lon": 9.9699292}, {"Bezirk": "Eimsb\u00fcttel", "art": 1, "Nummer": "213", "PLZ": "20253", "tempo30": 1, "Strasse": "Eppendorfer Weg", "lat": 53.58196185, "Name": "KiTa Stapellauf e.V.", "id": 41, "lon": 9.96965128425033}, {"Bezirk": "Eimsb\u00fcttel", "art": 1, "Nummer": "138a", "PLZ": "20253", "tempo30": 1, "Strasse": "Eppendorfer Weg", "lat": 53.57785681668653, "Name": "KiTa Lernhafen", "id": 42, "lon": 9.96393973037944}, {"Bezirk": "Hamburg-Nord", "art": 1, "Nummer": "234", "PLZ": "20251", "tempo30": 1, "Strasse": "Eppendorfer Weg", "lat": 53.5827036, "Name": "KiTa Kind und Kegel Eppendorfer Weg", "id": 43, "lon": 9.97477455365451}, {"Bezirk": "Eimsb\u00fcttel", "art": 1, "Nummer": "4", "PLZ": "20259", "tempo30": 1, "Strasse": "Eppendorfer Weg", "lat": 53.5683536, "Name": "KiTa Schmuddelkinder", "id": 44, "lon": 9.9566843}, {"Bezirk": "Eimsb\u00fcttel", "art": 1, "Nummer": "121", "PLZ": "20259", "tempo30": 1, "Strasse": "Eppendorfer Weg", "lat": 53.575739, "Name": "KiTa Kinderladen 100 Blumen", "id": 45, "lon": 9.9623022}, {"Bezirk": "Altona", "art": 1, "Nummer": "21", "PLZ": "22767", "tempo30": 1, "Strasse": "Eschelsweg", "lat": 53.5504906, "Name": "KiTa Die Kobolde", "id": 46, "lon": 9.9455335}, {"Bezirk": "Wandsbek", "art": 1, "Nummer": "270", "PLZ": "22177", "tempo30": 1, "Strasse": "Fabriciusstra\u00dfe", "lat": 53.61509205, "Name": "KiTa Fabriciusstra\u00dfe", "id": 47, "lon": 10.0725141679334}, {"Bezirk": "Harburg", "art": 1, "Nummer": "48", "PLZ": "21149", "tempo30": 1, "Strasse": "Falkenbergsweg", "lat": 53.46530386611448, "Name": "Waldorfkindergarten - Neugraben", "id": 48, "lon": 9.86550121840478}, {"Bezirk": "Wandsbek", "art": 1, "Nummer": "69", "PLZ": "22359", "tempo30": 1, "Strasse": "Farmsener Landstra\u00dfe", "lat": 53.63881605, "Name": "KiTa Volksdorf", "id": 49, "lon": 10.1531360525285}, {"Bezirk": "Wandsbek", "art": 1, "Nummer": "89", "PLZ": "22415", "tempo30": 1, "Strasse": "Flughafenstra\u00dfe", "lat": 53.64070452023962, "Name": "KiTa Flughafenstra\u00dfe", "id": 50, "lon": 10.022231841008509}, {"Bezirk": "Hamburg-Nord", "art": 1, "Nummer": "65", "PLZ": "22419", "tempo30": 1, "Strasse": "Foorthkamp", "lat": 53.66118315, "Name": "Das M\u00e4rchenhaus", "id": 51, "lon": 10.0158828308625}, {"Bezirk": "Bergedorf", "art": 1, "Nummer": "44", "PLZ": "21039", "tempo30": 1, "Strasse": "Gammer Weg", "lat": 53.4313582, "Name": "Elbstrolche", "id": 52, "lon": 10.2751135072679}, {"Bezirk": "Eimsb\u00fcttel", "art": 3, "Nummer": "38", "PLZ": "22529", "tempo30": 1, "Strasse": "Gazellenkamp", "lat": 53.60014459939629, "Name": "Pro Seniore Residenz Hamburg", "id": 53, "lon": 9.94993421043392}, {"Bezirk": "Bergedorf", "art": 4, "Nummer": "80", "PLZ": "21029", "tempo30": 1, "Strasse": "Glindersweg", "lat": 53.48577785, "Name": "Bethesda Krankenhaus Bergedorf", "id": 54, "lon": 10.235974541918}, {"Bezirk": "Hamburg-Mitte", "art": 4, "Nummer": "3", "PLZ": "21107", "tempo30": 1, "Strasse": "Gro\u00df-Sand", "lat": 53.5036968, "Name": "Wilhelmsburger Krankenhaus Gro\u00df-Sand", "id": 55, "lon": 9.98617833998401}, {"Bezirk": "Eimsb\u00fcttel", "art": 3, "Nummer": "12", "PLZ": "22527", "tempo30": 1, "Strasse": "Hagenbeckstra\u00dfe", "lat": 53.58476285, "Name": "AWO Seniorenzentrum Hagenbeckstra\u00dfe", "id": 56, "lon": 9.94637676866197}, {"Bezirk": "Harburg", "art": 1, "Nummer": "124", "PLZ": "21077", "tempo30": 1, "Strasse": "Hainholzweg", "lat": 53.45088655, "Name": "KiTa Harburger Berge", "id": 57, "lon": 9.92833646104041}, {"Bezirk": "Wandsbek", "art": 1, "Nummer": "36", "PLZ": "22041", "tempo30": 1, "Strasse": "Hammer Stra\u00dfe", "lat": 53.56765945, "Name": "KiTa Luisito II", "id": 58, "lon": 10.0626265211172}, {"Bezirk": "Wandsbek", "art": 1, "Nummer": "122", "PLZ": "22043", "tempo30": 1, "Strasse": "Hammer Stra\u00dfe", "lat": 53.56300384948175, "Name": "KiTa Hammer Stra\u00dfe", "id": 59, "lon": 10.065818242296404}, {"Bezirk": "Hamburg-Mitte", "art": 1, "Nummer": "2", "PLZ": "20359", "tempo30": 1, "Strasse": "Harald-Stender-Platz", "lat": 53.55340175, "Name": "KiTa Am Millerntor", "id": 60, "lon": 9.96643075619967}, {"Bezirk": "Wandsbek", "art": 1, "Nummer": "164", "PLZ": "22089", "tempo30": 1, "Strasse": "Hasselbrookstra\u00dfe", "lat": 53.56485645, "Name": "AWO Kita Hasselbrook", "id": 61, "lon": 10.0552297868864}, {"Bezirk": "Hamburg-Mitte", "art": 1, "Nummer": "50", "PLZ": "22115", "tempo30": 1, "Strasse": "Havighorster Redder", "lat": 53.52714375, "Name": "Bl\u00fcmchen", "id": 62, "lon": 10.1490333197066}, {"Bezirk": "Hamburg-Nord", "art": 1, "Nummer": "1a", "PLZ": "20251", "tempo30": 1, "Strasse": "Heider Stra\u00dfe", "lat": 53.58202083936021, "Name": "Ev. KiTa der Kirchengemeinde St. Markus\nHoheluft", "id": 63, "lon": 9.973712016002278}, {"Bezirk": "Eimsb\u00fcttel", "art": 1, "Nummer": "2b", "PLZ": "22459", "tempo30": 1, "Strasse": "Heidlohstra\u00dfe", "lat": 53.6294363, "Name": "KiTa Die Kindsk\u00f6pfe Mini", "id": 64, "lon": 9.9281939}, {"Bezirk": "Bergedorf", "art": 3, "Nummer": "1", "PLZ": "21039", "tempo30": 1, "Strasse": "Heinrich-Stubbe-Weg", "lat": 53.44596607858042, "Name": "Tagespflege Vierlanden", "id": 65, "lon": 10.230353059507472}, {"Bezirk": "Altona", "art": 1, "Nummer": "6", "PLZ": "22525", "tempo30": 1, "Strasse": "Hellgrundweg", "lat": 53.58468535, "Name": "KiTa Im Volkspark", "id": 66, "lon": 9.89627494234926}, {"Bezirk": "Hamburg-Nord", "art": 1, "Nummer": "24", "PLZ": "22453", "tempo30": 1, "Strasse": "Heselst\u00fccken", "lat": 53.6171783, "Name": "KiTa Himmelsst\u00fcrmer", "id": 67, "lon": 9.9990535}, {"Bezirk": "Eimsb\u00fcttel", "art": 1, "Nummer": "61", "PLZ": "20149", "tempo30": 1, "Strasse": "Hochallee", "lat": 53.577935, "Name": "Kath. KiGa St. Elisabeth", "id": 68, "lon": 9.98561687264151}, {"Bezirk": "Eimsb\u00fcttel", "art": 4, "Nummer": "17", "PLZ": "20259", "tempo30": 1, "Strasse": "Hohe Weide", "lat": 53.571769, "Name": "Agaplesion Diakonieklinikum Hamburg", "id": 69, "lon": 9.96594974033989}, {"Bezirk": "Altona", "art": 1, "Nummer": "108", "PLZ": "22767", "tempo30": 1, "Strasse": "Holstenstra\u00dfe", "lat": 53.55755037885249, "Name": "KiTa Paula und Max-Holstenstra\u00dfe", "id": 70, "lon": 9.948681149503495}, {"Bezirk": "Hamburg-Nord", "art": 1, "Nummer": "31", "PLZ": "20249", "tempo30": 1, "Strasse": "Husumer Stra\u00dfe", "lat": 53.5873715, "Name": "KiTa Der Kindergarten", "id": 71, "lon": 9.97956643786898}, {"Bezirk": "Wandsbek", "art": 1, "Nummer": "52", "PLZ": "22395", "tempo30": 1, "Strasse": "Iland", "lat": 53.6636578, "Name": "Waldkindergarten Ameisenhaufen", "id": 72, "lon": 10.10994955}, {"Bezirk": "Hamburg-Mitte", "art": 1, "Nummer": "107", "PLZ": "21107", "tempo30": 1, "Strasse": "Industriestra\u00dfe", "lat": 53.51416807769709, "Name": "FR\u00d6BEL-Kindergarten Industriestra\u00dfe", "id": 73, "lon": 9.98271975083611}, {"Bezirk": "Altona", "art": 1, "Nummer": "17", "PLZ": "22763", "tempo30": 1, "Strasse": "J\u00fcrgen-T\u00f6pfer-Stra\u00dfe", "lat": 53.5588849, "Name": "KiTa im Othmarschen Park", "id": 74, "lon": 9.9023767}, {"Bezirk": "Wandsbek", "art": 3, "Nummer": "92", "PLZ": "22043", "tempo30": 1, "Strasse": "J\u00fcthornstra\u00dfe", "lat": 53.56774945, "Name": "Domizil zum Husaren", "id": 75, "lon": 10.0828262473019}, {"Bezirk": "Hamburg-Mitte", "art": 1, "Nummer": "76", "PLZ": "21109", "tempo30": 1, "Strasse": "Kirchdorfer Stra\u00dfe", "lat": 53.4963415, "Name": "KiTa Kr\u00fcmelkiste", "id": 76, "lon": 10.0223427612048}, {"Bezirk": "Bergedorf", "art": 1, "Nummer": "103", "PLZ": "21037", "tempo30": 1, "Strasse": "Kirchenheerweg", "lat": 53.4188685, "Name": "KiTa  Elkes Sieben Zwerge", "id": 77, "lon": 10.1997274}, {"Bezirk": "Bergedorf", "art": 1, "Nummer": "6", "PLZ": "21037", "tempo30": 1, "Strasse": "Kirchenheerweg", "lat": 53.4196609, "Name": "Ev. KiGa St. Severini Kirchwerder", "id": 78, "lon": 10.1996974543618}, {"Bezirk": "Bergedorf", "art": 1, "Nummer": "73", "PLZ": "21037", "tempo30": 1, "Strasse": "Kraueler Hauptdeich", "lat": 53.3993947, "Name": "KiTa Kraueler Hauptdeich", "id": 79, "lon": 10.214993330763}, {"Bezirk": "Bergedorf", "art": 1, "Nummer": "3", "PLZ": "21031", "tempo30": 1, "Strasse": "Kurt-Adams-Platz", "lat": 53.507832, "Name": "KiTa Kurt-Adams-Platz", "id": 80, "lon": 10.2099617}, {"Bezirk": "Hamburg-Mitte", "art": 1, "Nummer": "34a", "PLZ": "20357", "tempo30": 1, "Strasse": "Lagerstra\u00dfe", "lat": 53.562832461510915, "Name": "Musikkindergarten Hamburg", "id": 81, "lon": 9.967067058715017}, {"Bezirk": "Eimsb\u00fcttel", "art": 1, "Nummer": "8", "PLZ": "20257", "tempo30": 1, "Strasse": "Lappenbergsallee", "lat": 53.5743453, "Name": "KiTa Kinderhaus Fledermaus", "id": 82, "lon": 9.9482315}, {"Bezirk": "Bergedorf", "art": 1, "Nummer": "16", "PLZ": "21037", "tempo30": 1, "Strasse": "Lauweg", "lat": 53.4464941, "Name": "Ev. KiTa St. Severini F\u00fcnfhausen", "id": 83, "lon": 10.1305856730935}, {"Bezirk": "Hamburg-Mitte", "art": 1, "Nummer": "165", "PLZ": "22111", "tempo30": 1, "Strasse": "Legienstra\u00dfe", "lat": 53.551083, "Name": "KiTa Kinderparadies Billstedt", "id": 84, "lon": 10.1015311}, {"Bezirk": "Eimsb\u00fcttel", "art": 2, "Nummer": "14", "PLZ": "20251", "tempo30": 1, "Strasse": "Lehmweg", "lat": 53.58017595, "Name": "Ida Ehre Schule", "id": 85, "lon": 9.97707729546419}, {"Bezirk": "Wandsbek", "art": 1, "Nummer": "111", "PLZ": "22149", "tempo30": 1, "Strasse": "Liliencronstra\u00dfe", "lat": 53.58812625, "Name": "Kath. KiTa Liliencronstra\u00dfe", "id": 86, "lon": 10.1647936061409}, {"Bezirk": "Wandsbek", "art": 1, "Nummer": "130", "PLZ": "22149", "tempo30": 1, "Strasse": "Liliencronstra\u00dfe", "lat": 53.5873149, "Name": "Kinderkrippe KiWim\u00e4use", "id": 87, "lon": 10.1649951446469}, {"Bezirk": "Wandsbek", "art": 4, "Nummer": "130", "PLZ": "22149", "tempo30": 1, "Strasse": "Liliencronstra\u00dfe", "lat": 53.5873149, "Name": "Katholisches Kinderkrankenhaus Wilhelmstift", "id": 88, "lon": 10.1649951446469}, {"Bezirk": "Hamburg-Mitte", "art": 4, "Nummer": "5", "PLZ": "20099", "tempo30": 1, "Strasse": "Lohm\u00fchlenstra\u00dfe", "lat": 53.55968585, "Name": "Asklepios Klinik St. Georg", "id": 89, "lon": 10.0180669643238}, {"Bezirk": "Eimsb\u00fcttel", "art": 1, "Nummer": "12", "PLZ": "22453", "tempo30": 1, "Strasse": "Lokstedter Holt", "lat": 53.6131651, "Name": "Waldforscher Kindergarten - Krippenhaus -", "id": 90, "lon": 9.9505977}, {"Bezirk": "Bergedorf", "art": 1, "Nummer": "45", "PLZ": "21031", "tempo30": 1, "Strasse": "Ludwig-Rosenberg-Ring", "lat": 53.491238, "Name": "KiTa Leuchtk\u00e4fer", "id": 91, "lon": 10.2064772}, {"Bezirk": "Hamburg-Mitte", "art": 1, "Nummer": "10", "PLZ": "20537", "tempo30": 1, "Strasse": "Luisenweg", "lat": 53.5543147, "Name": "KiTa Kinderschlupf", "id": 92, "lon": 10.0498071}, {"Bezirk": "Hamburg-Nord", "art": 1, "Nummer": "302", "PLZ": "22335", "tempo30": 1, "Strasse": "Maienweg", "lat": 53.62473525, "Name": "Kleine Racker", "id": 93, "lon": 10.0266886910348}, {"Bezirk": "Hamburg-Nord", "art": 1, "Nummer": "141", "PLZ": "22297", "tempo30": 1, "Strasse": "Maienweg", "lat": 53.6170302, "Name": "KiTa WABE-Kita Alsterklang", "id": 94, "lon": 10.0130636302443}, {"Bezirk": "Hamburg-Nord", "art": 1, "Nummer": "289", "PLZ": "22335", "tempo30": 1, "Strasse": "Maienweg", "lat": 53.6235767, "Name": "KiTa Kleine F\u00fcchse III", "id": 95, "lon": 10.0257910502603}, {"Bezirk": "Hamburg-Nord", "art": 1, "Nummer": "66b", "PLZ": "22297", "tempo30": 1, "Strasse": "Maienweg", "lat": 53.6148043090388, "Name": "KiTa Alsterberg", "id": 96, "lon": 10.009160169657463}, {"Bezirk": "Hamburg-Nord", "art": 3, "Nummer": "145", "PLZ": "22297", "tempo30": 1, "Strasse": "Maienweg", "lat": 53.61738135, "Name": "PFLEGEN & WOHNEN ALSTERBERG", "id": 97, "lon": 10.0132087996621}, {"Bezirk": "Hamburg-Nord", "art": 1, "Nummer": "272", "PLZ": "22335", "tempo30": 1, "Strasse": "Maienweg", "lat": 53.6229831, "Name": "KiGa Maienweg", "id": 98, "lon": 10.026417}, {"Bezirk": "Altona", "art": 1, "Nummer": "20", "PLZ": "22587", "tempo30": 1, "Strasse": "Manteuffelstra\u00dfe", "lat": 53.5636385, "Name": "Ev. KiGa im Bereich der F\u00fchrungsakademie der\nBundeswehr", "id": 99, "lon": 9.8324864}, {"Bezirk": "Altona", "art": 3, "Nummer": "33", "PLZ": "22587", "tempo30": 1, "Strasse": "Manteuffelstra\u00dfe", "lat": 53.5611072, "Name": "Domizil am Hirschpark", "id": 100, "lon": 9.8280343}, {"Bezirk": "Hamburg-Nord", "art": 1, "Nummer": "132", "PLZ": "22301", "tempo30": 1, "Strasse": "Maria-Louisen-Stra\u00dfe", "lat": 53.5917973, "Name": "KiTa Maria-Louisen-Stra\u00dfe", "id": 101, "lon": 10.0073729535718}, {"Bezirk": "Hamburg-Nord", "art": 1, "Nummer": "133", "PLZ": "22301", "tempo30": 1, "Strasse": "Maria-Louisen-Stra\u00dfe", "lat": 53.5919633, "Name": "KiTa Apoidea favo bambini", "id": 102, "lon": 10.0063751806554}, {"Bezirk": "Hamburg-Mitte", "art": 1, "Nummer": "4", "PLZ": "22117", "tempo30": 1, "Strasse": "Merkenstra\u00dfe", "lat": 53.53949425, "Name": "Ev. KiTa Jubilate", "id": 103, "lon": 10.1279381463935}, {"Bezirk": "Hamburg-Nord", "art": 1, "Nummer": "25", "PLZ": "22297", "tempo30": 1, "Strasse": "Mexikoring", "lat": 53.604047115384056, "Name": "KiTa Mexikoring", "id": 104, "lon": 10.022235157216224}, {"Bezirk": "Hamburg-Mitte", "art": 1, "Nummer": "86", "PLZ": "22117", "tempo30": 1, "Strasse": "M\u00f6llner Landstra\u00dfe", "lat": 53.53773045, "Name": "KiTa Spielpilot", "id": 105, "lon": 10.1161960456489}, {"Bezirk": "Hamburg-Mitte", "art": 3, "Nummer": "35", "PLZ": "22111", "tempo30": 1, "Strasse": "M\u00f6llner Landstra\u00dfe", "lat": 53.539333924769316, "Name": "Annas Tagesbetreuung GmbH", "id": 106, "lon": 10.107796338558588}, {"Bezirk": "Hamburg-Mitte", "art": 3, "Nummer": "154", "PLZ": "22117", "tempo30": 1, "Strasse": "M\u00f6llner Landstra\u00dfe", "lat": 53.5387393, "Name": "DRK Tagespflege Billstedt", "id": 107, "lon": 10.1291278291853}, {"Bezirk": "Eimsb\u00fcttel", "art": 1, "Nummer": "61", "PLZ": "20257", "tempo30": 1, "Strasse": "M\u00fcggenkampstra\u00dfe", "lat": 53.5800294, "Name": "KiTa M\u00fcggenkampstra\u00dfe", "id": 108, "lon": 9.94094410685096}, {"Bezirk": "Harburg", "art": 1, "Nummer": "1", "PLZ": "21073", "tempo30": 1, "Strasse": "Museumsplatz", "lat": 53.4584625, "Name": "KiTa Museumsplatz", "id": 109, "lon": 9.97734331386627}, {"Bezirk": "Harburg", "art": 3, "Nummer": "26", "PLZ": "21073", "tempo30": 1, "Strasse": "Neue Stra\u00dfe", "lat": 53.4623444, "Name": "Seniorenresidenz Harburger Sand", "id": 110, "lon": 9.9797534}, {"Bezirk": "Wandsbek", "art": 2, "Nummer": "20", "PLZ": "22041", "tempo30": 1, "Strasse": "Neumann-Reichardt-Stra\u00dfe", "lat": 53.57224874341981, "Name": "Charlotte-Paulsen-Gymnasium", "id": 111, "lon": 10.078927106534655}, {"Bezirk": "Wandsbek", "art": 1, "Nummer": "59", "PLZ": "22159", "tempo30": 1, "Strasse": "Neusurenland", "lat": 53.61493121085627, "Name": "AWO Kita Jonni Birckholtz", "id": 112, "lon": 10.106654301021903}, {"Bezirk": "Eimsb\u00fcttel", "art": 1, "Nummer": "17", "PLZ": "20149", "tempo30": 1, "Strasse": "Oderfelder Stra\u00dfe", "lat": 53.5836705, "Name": "Ev. KiGa St. Nikolai", "id": 113, "lon": 9.98795756229805}, {"Bezirk": "Eimsb\u00fcttel", "art": 1, "Nummer": "23", "PLZ": "20149", "tempo30": 1, "Strasse": "Oderfelder Stra\u00dfe", "lat": 53.5844139, "Name": "Ev. KiGa St. Nikolai", "id": 114, "lon": 9.98786886051668}, {"Bezirk": "Eimsb\u00fcttel", "art": 1, "Nummer": "108", "PLZ": "22459", "tempo30": 1, "Strasse": "Paul-Sorge-Stra\u00dfe", "lat": 53.6311799, "Name": "KiTa Kinderhaus FlieWaTuut", "id": 115, "lon": 9.9511649}, {"Bezirk": "Eimsb\u00fcttel", "art": 1, "Nummer": "72", "PLZ": "22457", "tempo30": 1, "Strasse": "Pinneberger Stra\u00dfe", "lat": 53.63548055, "Name": "KiTa Elbauenland", "id": 116, "lon": 9.90206582321148}, {"Bezirk": "Wandsbek", "art": 1, "Nummer": "124a", "PLZ": "22399", "tempo30": 1, "Strasse": "Poppenb\u00fctteler Weg", "lat": 53.6490422, "Name": "KiTa Eppiland", "id": 117, "lon": 10.063938203141}, {"Bezirk": "Hamburg-Nord", "art": 3, "Nummer": "4-10", "PLZ": "22297", "tempo30": 1, "Strasse": "Rathenaustra\u00dfe", "lat": 53.60825171075961, "Name": "Seniorenresidenz Alsterpark", "id": 118, "lon": 9.99884058706098}, {"Bezirk": "Hamburg-Nord", "art": 1, "Nummer": "16", "PLZ": "22081", "tempo30": 1, "Strasse": "Richardstra\u00dfe", "lat": 53.572669, "Name": "KiTa KiKu Zwergenland", "id": 119, "lon": 10.0344211}, {"Bezirk": "Wandsbek", "art": 2, "Nummer": "44", "PLZ": "22089", "tempo30": 1, "Strasse": "Ritterstra\u00dfe", "lat": 53.56452915, "Name": "Schule Hasselbrook", "id": 120, "lon": 10.0443684479312}, {"Bezirk": "Wandsbek", "art": 1, "Nummer": "7", "PLZ": "22089", "tempo30": 1, "Strasse": "Ritterstra\u00dfe", "lat": 53.568067, "Name": "Bewegungskita Ritterstra\u00dfe", "id": 121, "lon": 10.0454069796552}, {"Bezirk": "Wandsbek", "art": 1, "Nummer": "29", "PLZ": "22089", "tempo30": 1, "Strasse": "Ritterstra\u00dfe", "lat": 53.56675335, "Name": "KiTa Tilemann-Hort", "id": 122, "lon": 10.045374156432}, {"Bezirk": "Wandsbek", "art": 1, "Nummer": "28", "PLZ": "22395", "tempo30": 1, "Strasse": "Rodenbeker Stra\u00dfe", "lat": 53.674755, "Name": "KiTa Rodenbeker Stra\u00dfe", "id": 123, "lon": 10.121909925906}, {"Bezirk": "Wandsbek", "art": 3, "Nummer": "3-5", "PLZ": "22395", "tempo30": 1, "Strasse": "Rodenbeker Stra\u00dfe", "lat": 53.67189119479171, "Name": "Fr\u00f6hlich Senioren- und Pflegepension GmbH", "id": 124, "lon": 10.122966286059835}, {"Bezirk": "Wandsbek", "art": 1, "Nummer": "6", "PLZ": "22391", "tempo30": 1, "Strasse": "Rolfinckstra\u00dfe", "lat": 53.6409042, "Name": "KiGa \"Rolfincken\"\"\"", "id": 125, "lon": 10.0815565110491}, {"Bezirk": "Eimsb\u00fcttel", "art": 1, "Nummer": "138", "PLZ": "20149", "tempo30": 1, "Strasse": "Rothenbaumchaussee", "lat": 53.57696785, "Name": "KiTa Rothenbaumchaussee 138", "id": 126, "lon": 9.98946145460004}, {"Bezirk": "Eimsb\u00fcttel", "art": 1, "Nummer": "199", "PLZ": "20149", "tempo30": 1, "Strasse": "Rothenbaumchaussee", "lat": 53.57835395, "Name": "KiTa Kinderhaus Rothenbaumchaussee", "id": 127, "lon": 9.98839652537616}, {"Bezirk": "Hamburg-Nord", "art": 4, "Nummer": "220", "PLZ": "22307", "tempo30": 1, "Strasse": "R\u00fcbenkamp", "lat": 53.60654655, "Name": "Asklepios Klinik Barmbek", "id": 128, "lon": 10.0362700983195}, {"Bezirk": "Hamburg-Nord", "art": 1, "Nummer": "220", "PLZ": "22307", "tempo30": 1, "Strasse": "R\u00fcbenkamp", "lat": 53.60654655, "Name": "KiTa R\u00fcbennasen", "id": 129, "lon": 10.0362700983195}, {"Bezirk": "Altona", "art": 1, "Nummer": "47", "PLZ": "22609", "tempo30": 1, "Strasse": "Rupertistra\u00dfe", "lat": 53.55499885, "Name": "Ev. KiTa Nienstedten", "id": 130, "lon": 9.84099430355495}, {"Bezirk": "Hamburg-Mitte", "art": 1, "Nummer": "2", "PLZ": "20535", "tempo30": 1, "Strasse": "Saling", "lat": 53.55891276546374, "Name": "KiTa Kleine F\u00fcchse II", "id": 131, "lon": 10.047540002062194}, {"Bezirk": "Hamburg-Mitte", "art": 1, "Nummer": "8", "PLZ": "22111", "tempo30": 1, "Strasse": "Sandkamp", "lat": 53.55128925, "Name": "KiTa Rasselbande Horn", "id": 132, "lon": 10.0858158108518}, {"Bezirk": "Wandsbek", "art": 1, "Nummer": "21", "PLZ": "22145", "tempo30": 1, "Strasse": "Saseler Stra\u00dfe", "lat": 53.624439414821836, "Name": "40-F\u00fc\u00dfler", "id": 133, "lon": 10.162930432660433}, {"Bezirk": "Eimsb\u00fcttel", "art": 1, "Nummer": "1", "PLZ": "20253", "tempo30": 1, "Strasse": "Scheideweg", "lat": 53.578194, "Name": "Kinderstube", "id": 134, "lon": 9.9646059294036}, {"Bezirk": "Altona", "art": 1, "Nummer": "62", "PLZ": "20357", "tempo30": 1, "Strasse": "Schulterblatt", "lat": 53.5615668, "Name": "Die Schanzenschl\u00fcmpfe", "id": 135, "lon": 9.9625554}, {"Bezirk": "Hamburg-Nord", "art": 1, "Nummer": "177", "PLZ": "22299", "tempo30": 1, "Strasse": "Sierichstra\u00dfe", "lat": 53.59288695, "Name": "KiGa Sierichstra\u00dfe", "id": 136, "lon": 9.99724207001409}, {"Bezirk": "Hamburg-Nord", "art": 1, "Nummer": "183", "PLZ": "22299", "tempo30": 1, "Strasse": "Sierichstra\u00dfe", "lat": 53.59303895, "Name": "KiTa Hamburger Kinderhafen", "id": 137, "lon": 9.99690758409032}, {"Bezirk": "Harburg", "art": 1, "Nummer": "2", "PLZ": "21077", "tempo30": 1, "Strasse": "Sinstorfer Kirchweg", "lat": 53.42406134990319, "Name": "KiTa Sinstorfer Kirchweg", "id": 138, "lon": 9.980064546732526}, {"Bezirk": "Harburg", "art": 2, "Nummer": "40", "PLZ": "21077", "tempo30": 1, "Strasse": "Sinstorfer Weg", "lat": 53.4304471, "Name": "Lessing-Stadtteilschule", "id": 139, "lon": 9.96971061174052}, {"Bezirk": "Wandsbek", "art": 1, "Nummer": "30", "PLZ": "22309", "tempo30": 1, "Strasse": "Steilshooper Allee", "lat": 53.60800335, "Name": "KiTa Steilshooper Allee", "id": 140, "lon": 10.0496986743933}, {"Bezirk": "Hamburg-Nord", "art": 1, "Nummer": "120", "PLZ": "22305", "tempo30": 1, "Strasse": "Steilshooper Stra\u00dfe", "lat": 53.5908685, "Name": "KiTa Tieloh", "id": 141, "lon": 10.0519863393024}, {"Bezirk": "Hamburg-Nord", "art": 1, "Nummer": "40", "PLZ": "22303", "tempo30": 1, "Strasse": "S\u00fcdring", "lat": 53.5909235, "Name": "KiTa S\u00fcdring", "id": 142, "lon": 10.0282599}, {"Bezirk": "Altona", "art": 1, "Nummer": "187", "PLZ": "22589", "tempo30": 1, "Strasse": "S\u00fclldorfer Kirchenweg", "lat": 53.57939135, "Name": "Ev. KiTa S\u00fclldorf", "id": 143, "lon": 9.79722921106911}, {"Bezirk": "Eimsb\u00fcttel", "art": 1, "Nummer": "11a", "PLZ": "22457", "tempo30": 1, "Strasse": "S\u00fcntelstra\u00dfe", "lat": 53.6311975, "Name": "Ev. KiTa des Albertinen-Diakoniewerkes", "id": 144, "lon": 9.9052693}, {"Bezirk": "Hamburg-Nord", "art": 1, "Nummer": "40", "PLZ": "22419", "tempo30": 1, "Strasse": "Tarpen", "lat": 53.6657791, "Name": "KiTa Spatzennest im Valvo-Park", "id": 145, "lon": 9.9946436}, {"Bezirk": "Altona", "art": 1, "Nummer": "42", "PLZ": "22761", "tempo30": 1, "Strasse": "Theodorstra\u00dfe", "lat": 53.5693667, "Name": "ASB Kita R\u00e4uberh\u00f6hle", "id": 146, "lon": 9.8998717}, {"Bezirk": "Altona", "art": 1, "Nummer": "42", "PLZ": "22761", "tempo30": 1, "Strasse": "Theodorstra\u00dfe", "lat": 53.5693667, "Name": "KiTa nordvind", "id": 147, "lon": 9.8998717}, {"Bezirk": "Altona", "art": 3, "Nummer": "30", "PLZ": "22761", "tempo30": 1, "Strasse": "Theodorstra\u00dfe", "lat": 53.5683628, "Name": "Parkdomizil am Bahrenfelder See", "id": 148, "lon": 9.89873275722086}, {"Bezirk": "Hamburg-Mitte", "art": 1, "Nummer": "86", "PLZ": "20539", "tempo30": 1, "Strasse": "Vierl\u00e4nder Damm", "lat": 53.5325591, "Name": "KiTa Vierl\u00e4nder", "id": 149, "lon": 10.0485601}, {"Bezirk": "Wandsbek", "art": 1, "Nummer": "268a", "PLZ": "22395", "tempo30": 1, "Strasse": "Volksdorfer Damm", "lat": 53.6718326, "Name": "Ev. KiGa Bergstedt", "id": 150, "lon": 10.1264722693573}, {"Bezirk": "Altona", "art": 2, "Nummer": "2", "PLZ": "22547", "tempo30": 1, "Strasse": "Vorhornweg", "lat": 53.59048693077874, "Name": "Stadtteilschule Lurup", "id": 151, "lon": 9.882863359443519}, {"Bezirk": "Altona", "art": 1, "Nummer": "8c", "PLZ": "22769", "tempo30": 1, "Strasse": "Waidmannstra\u00dfe", "lat": 53.569463749238714, "Name": "KiTa P\u00fcnktchens Tintenklecks", "id": 152, "lon": 9.94290372196392}, {"Bezirk": "Wandsbek", "art": 1, "Nummer": "27", "PLZ": "22041", "tempo30": 1, "Strasse": "Waldd\u00f6rferstra\u00dfe", "lat": 53.5790355, "Name": "KiTa Piggeldy", "id": 153, "lon": 10.0673365}, {"Bezirk": "Eimsb\u00fcttel", "art": 1, "Nummer": "44", "PLZ": "20357", "tempo30": 1, "Strasse": "Weidenallee", "lat": 53.56822305, "Name": "KiTa Krippe Fliegenpilze", "id": 154, "lon": 9.9646674479399}, {"Bezirk": "Eimsb\u00fcttel", "art": 1, "Nummer": "22a", "PLZ": "20357", "tempo30": 1, "Strasse": "Weidenallee", "lat": 53.567369002746815, "Name": "KiTa Kinderhaus Weidenallee", "id": 155, "lon": 9.965234272633898}, {"Bezirk": "Eimsb\u00fcttel", "art": 1, "Nummer": "37", "PLZ": "20357", "tempo30": 1, "Strasse": "Weidenallee", "lat": 53.5671614, "Name": "KiTa Kinderladen Bambino", "id": 156, "lon": 9.96458111712069}, {"Bezirk": "Hamburg-Nord", "art": 1, "Nummer": "126", "PLZ": "22083", "tempo30": 1, "Strasse": "Weidestra\u00dfe", "lat": 53.5810734, "Name": "KiTa Flohkiste", "id": 157, "lon": 10.0249304}, {"Bezirk": "Hamburg-Nord", "art": 1, "Nummer": "126", "PLZ": "22083", "tempo30": 1, "Strasse": "Weidestra\u00dfe", "lat": 53.5810734, "Name": "KiTa Flohkiste II", "id": 158, "lon": 10.0249304}, {"Bezirk": "Hamburg-Nord", "art": 1, "Nummer": "223", "PLZ": "22337", "tempo30": 1, "Strasse": "Wellingsb\u00fctteler Landstra\u00dfe", "lat": 53.63510189511264, "Name": "KiTa Natur-Kinderladen Pinocchio", "id": 159, "lon": 10.05133477410125}, {"Bezirk": "Hamburg-Nord", "art": 3, "Nummer": "217", "PLZ": "22337", "tempo30": 1, "Strasse": "Wellingsb\u00fctteler Landstra\u00dfe", "lat": 53.63506255, "Name": "Haus Alstertal", "id": 160, "lon": 10.0509613123372}, {"Bezirk": "Wandsbek", "art": 3, "Nummer": "71", "PLZ": "22391", "tempo30": 1, "Strasse": "Wellingsb\u00fcttler Weg", "lat": 53.6429591, "Name": "Alsterdomizil", "id": 161, "lon": 10.0715697}, {"Bezirk": "Wandsbek", "art": 3, "Nummer": "71", "PLZ": "22391", "tempo30": 1, "Strasse": "Wellingsb\u00fcttler Weg", "lat": 53.6429591, "Name": "Alsterdomizil - Herrenhaus -", "id": 162, "lon": 10.0715697}, {"Bezirk": "Hamburg-Nord", "art": 2, "Nummer": "4", "PLZ": "22297", "tempo30": 1, "Strasse": "Wilhelm-Metzger-Stra\u00dfe", "lat": 53.60569305, "Name": "Heilwig-Gymnasium", "id": 163, "lon": 9.99920990973334}, {"Bezirk": "Wandsbek", "art": 3, "Nummer": "156", "PLZ": "22395", "tempo30": 1, "Strasse": "Wohldorfer Damm", "lat": 53.68492561475492, "Name": "Senioren- & Pflegeheim Margarethenhof GmbH", "id": 164, "lon": 10.130433061683613}, {"Bezirk": "Hamburg-Mitte", "art": 1, "Nummer": "1", "PLZ": "20457", "tempo30": 1, "Strasse": "Yokohamastra\u00dfe", "lat": 53.54216791286887, "Name": "KiTa CompanyKids Hafencity Hamburg", "id": 165, "lon": 10.003356878439051}, {"Bezirk": "Hamburg-Mitte", "art": 1, "Nummer": "4", "PLZ": "20457", "tempo30": 1, "Strasse": "Yokohamastra\u00dfe", "lat": 53.542299517557524, "Name": "KiTa  Kinderzimmer Lohsepark", "id": 166, "lon": 10.00400420269967}, {"Bezirk": "Hamburg-Mitte", "art": 1, "Nummer": "2", "PLZ": "20359", "tempo30": 1, "Strasse": "Zirkusweg", "lat": 53.547390562482164, "Name": "KiTa Kinderzimmer Astraturm", "id": 167, "lon": 9.965411163688293}, {"Bezirk": "Hamburg-Mitte", "art": 4, "Nummer": "4", "PLZ": "20459", "tempo30": 1, "Strasse": "Admiralit\u00e4tstra\u00dfe", "lat": 53.54862783667322, "Name": "Klinik Fleetinsel Hamburg", "id": 168, "lon": 9.985244788554658}, {"Nummer": "105f", "id": 169, "lat": 53.5591532, "lon": 10.1045831, "art": 1, "PLZ": "22119", "Name": "Ev. KiTa Arche Noah", "tempo30": 2, "Strasse": "Manshardtstra\u00dfe"}, {"Nummer": "30", "id": 170, "lat": 53.5882771, "lon": 10.0041116, "art": 3, "PLZ": "22301", "Name": "Seniorenhaus Matth\u00e4us", "tempo30": 2, "Strasse": "Maria-Louisen-Stra\u00dfe"}, {"Nummer": "33", "id": 171, "lat": 53.44782965, "lon": 9.97316789834837, "art": 1, "PLZ": "21077", "Name": "KiGa Au\u00dfenm\u00fchle", "tempo30": 2, "Strasse": "Marmstorfer Weg"}, {"Nummer": "46", "id": 172, "lat": 53.5968004, "lon": 10.1326237, "art": 1, "PLZ": "22147", "Name": "KiTa Petra Schiffler", "tempo30": 2, "Strasse": "Am Pulverhof"}, {"Nummer": "3", "id": 173, "lat": 53.59227835, "lon": 9.98756567687549, "art": 1, "PLZ": "20251", "Name": "KiTa Kindergarten Flitzepiepen", "tempo30": 2, "Strasse": "Martinistra\u00dfe"}, {"Nummer": "20", "id": 174, "lat": 53.59277236813117, "lon": 9.98602923637364, "art": 1, "PLZ": "20251", "Name": "KiTa Die Martinis e.V.", "tempo30": 2, "Strasse": "Martinistra\u00dfe"}, {"Nummer": "52", "id": 175, "lat": 53.5921787, "lon": 9.9756013, "art": 1, "PLZ": "20251", "Name": "KiTa Universit\u00e4tsklinikum Hamburg - Eppendorf", "tempo30": 2, "Strasse": "Martinistra\u00dfe"}, {"Nummer": "61", "id": 176, "lat": 53.58833135, "lon": 9.97526034301281, "art": 1, "PLZ": "20251", "Name": "KiTa und Club Martinistra\u00dfe", "tempo30": 2, "Strasse": "Martinistra\u00dfe"}, {"Nummer": "52", "id": 177, "lat": 53.5921787, "lon": 9.9756013, "art": 4, "PLZ": "20251", "Name": "Universit\u00e4res Herzzentrum Hamburg GmbH", "tempo30": 2, "Strasse": "Martinistra\u00dfe"}, {"Nummer": "52", "id": 178, "lat": 53.5921787, "lon": 9.9756013, "art": 4, "PLZ": "20251", "Name": "Universit\u00e4tsklinikum Hamburg-Eppendorf", "tempo30": 2, "Strasse": "Martinistra\u00dfe"}, {"Nummer": "78", "id": 179, "lat": 53.5884479, "lon": 9.972926, "art": 4, "PLZ": "20251", "Name": "Facharztklinik Hamburg", "tempo30": 2, "Strasse": "Martinistra\u00dfe"}, {"Nummer": "45", "id": 180, "lat": 53.5916246, "lon": 9.9826284, "art": 3, "PLZ": "20251", "Name": "Agaplesion Bethanien-H\u00f6fe", "tempo30": 2, "Strasse": "Martinistra\u00dfe"}, {"Nummer": "61", "id": 181, "lat": 53.5444127, "lon": 10.0208129, "art": 1, "PLZ": "20097", "Name": "KiTa Kinderzimmer City-S\u00fcd", "tempo30": 2, "Strasse": "Amsinckstra\u00dfe"}, {"Nummer": "83", "id": 182, "lat": 53.5548664, "lon": 9.940932, "art": 2, "PLZ": "22765", "Name": "Gymnasium Allee", "tempo30": 2, "Strasse": "Max-Brauer-Allee"}, {"Nummer": "186", "id": 183, "lat": 53.5595251, "lon": 9.95204138250718, "art": 1, "PLZ": "22765", "Name": "KiTa Krokophantsie", "tempo30": 2, "Strasse": "Max-Brauer-Allee"}, {"Nummer": "191", "id": 184, "lat": 53.56049095, "lon": 9.95272011599636, "art": 1, "PLZ": "22765", "Name": "KiTa WiWaWuschel", "tempo30": 2, "Strasse": "Max-Brauer-Allee"}, {"Nummer": "39b", "id": 185, "lat": 53.599510713307644, "lon": 9.993148570199528, "art": 1, "PLZ": "20249", "Name": "Hort Akademie f\u00fcr Kinder", "tempo30": 2, "Strasse": "Meenkwiese"}, {"Nummer": "77", "id": 186, "lat": 53.63566545, "lon": 10.1625461622433, "art": 1, "PLZ": "22145", "Name": "Freier Waldorfkindergarten Meiendorf", "tempo30": 2, "Strasse": "Meiendorfer Weg"}, {"Nummer": "106", "id": 187, "lat": 53.5757388, "lon": 9.99367468199659, "art": 3, "PLZ": "20149", "Name": "Stiftung Altenheim St. Johannis/St. Nikolai", "tempo30": 2, "Strasse": "Mittelweg"}, {"Nummer": "266", "id": 188, "lat": 53.5433985, "lon": 10.1447204, "art": 1, "PLZ": "22117", "Name": "KiTa M\u00f6llner Landstra\u00dfe", "tempo30": 2, "Strasse": "M\u00f6llner Landstra\u00dfe"}, {"Nummer": "2-6", "id": 189, "lat": 53.569619, "lon": 9.967673, "art": 4, "PLZ": "20357", "Name": "Krankenhaus Jerusalem", "tempo30": 2, "Strasse": "Moorkamp"}, {"Nummer": "55", "id": 190, "lat": 53.54958695, "lon": 9.94305115, "art": 1, "PLZ": "22767", "Name": "Ahoj Kinder", "tempo30": 2, "Strasse": "M\u00f6rkenstra\u00dfe"}, {"Nummer": "45", "id": 191, "lat": 53.5648668, "lon": 9.9138668, "art": 1, "PLZ": "22761", "Name": "KiTa ZwergenAufstand", "tempo30": 2, "Strasse": "Bahrenfelder Chaussee"}, {"Nummer": "77", "id": 192, "lat": 53.5668577, "lon": 9.9075254, "art": 1, "PLZ": "22761", "Name": "Mendelssohn Kita", "tempo30": 2, "Strasse": "Bahrenfelder Chaussee"}, {"Nummer": "52", "id": 193, "lat": 53.5609276, "lon": 9.9254969, "art": 1, "PLZ": "22761", "Name": "Mien L\u00fcttje Welt", "tempo30": 2, "Strasse": "Bahrenfelder Steindamm"}, {"Nummer": "31", "id": 194, "lat": 53.5617004, "lon": 10.0246415, "art": 3, "PLZ": "22087", "Name": "Tagespflege Parkquartier Hohenfelde", "tempo30": 2, "Strasse": "M\u00fchlendamm"}, {"Nummer": "43", "id": 195, "lat": 53.5826166, "lon": 10.0101593, "art": 1, "PLZ": "22303", "Name": "KiTa Hansekinder M\u00fchlenkamp", "tempo30": 2, "Strasse": "M\u00fchlenkamp"}, {"Nummer": "62", "id": 196, "lat": 53.58816675, "lon": 10.0169408302866, "art": 1, "PLZ": "22303", "Name": "KiGa SPOKIS e.V. Bewegungskindergarten im VfL 93", "tempo30": 2, "Strasse": "Barmbeker Stra\u00dfe"}, {"Nummer": "67", "id": 197, "lat": 53.5705995, "lon": 10.1454802669451, "art": 1, "PLZ": "22043", "Name": "KiTa Kindervilla Jenfeld", "tempo30": 2, "Strasse": "Barsb\u00fctteler Stra\u00dfe"}, {"Nummer": "19", "id": 198, "lat": 53.5506798, "lon": 10.0168518, "art": 1, "PLZ": "20097", "Name": "Monkeyhaus", "tempo30": 2, "Strasse": "Nagelsweg"}, {"Nummer": "156a", "id": 199, "lat": 53.60928355, "lon": 10.0103655201104, "art": 1, "PLZ": "22297", "Name": "Ev. KiTa der Martin-Luther-Gemeinde", "tempo30": 2, "Strasse": "Bebelallee"}, {"Nummer": "11", "id": 200, "lat": 53.5543837, "lon": 9.92468282483108, "art": 1, "PLZ": "22765", "Name": "KiTa Kinderladen Donnerl\u00fcttchen", "tempo30": 2, "Strasse": "Behringstra\u00dfe"}, {"Nummer": "110b", "id": 201, "lat": 53.6011094, "lon": 9.9837604, "art": 1, "PLZ": "22529", "Name": "Anscharkr\u00fcmel", "tempo30": 2, "Strasse": "Nedderfeld"}, {"Nummer": "21", "id": 202, "lat": 53.5541762, "lon": 9.92326212547648, "art": 1, "PLZ": "22765", "Name": "KiTa Kinderkrippe Nesth\u00e4kchen", "tempo30": 2, "Strasse": "Behringstra\u00dfe"}, {"Nummer": "82a", "id": 203, "lat": 53.55483211586569, "lon": 9.91211393152739, "art": 1, "PLZ": "22763", "Name": "KiTa Behringstra\u00dfe", "tempo30": 2, "Strasse": "Behringstra\u00dfe"}, {"Nummer": "33b", "id": 204, "lat": 53.4963541, "lon": 10.0094392, "art": 1, "PLZ": "21109", "Name": "AWO Kita  \"Am Inselpark\"\"\"", "tempo30": 2, "Strasse": "Neuenfelder Stra\u00dfe"}, {"Nummer": "33", "id": 205, "lat": 53.4964652, "lon": 10.0042387, "art": 3, "PLZ": "21109", "Name": "KerVita; Senioren-Zentrum \"Am Inselpark\"\"\"", "tempo30": 2, "Strasse": "Neuenfelder Stra\u00dfe"}, {"Nummer": "30", "id": 206, "lat": 53.5581388, "lon": 9.9679333, "art": 1, "PLZ": "20359", "Name": "DOM-Kindergarten", "tempo30": 2, "Strasse": "Neuer Kamp"}, {"Nummer": "104", "id": 207, "lat": 53.61494044634743, "lon": 10.106645739981966, "art": 3, "PLZ": "22159", "Name": "HSP Tagespflege", "tempo30": 2, "Strasse": "Neusurenland"}, {"Nummer": "79", "id": 208, "lat": 53.51077755, "lon": 10.0207294922707, "art": 1, "PLZ": "21109", "Name": "KiTa Niedergeorgswerder Deich", "tempo30": 2, "Strasse": "Niedergeorgswerder Deich"}, {"Nummer": "5", "id": 209, "lat": 53.617891180511364, "lon": 9.948958304663087, "art": 1, "PLZ": "22459", "Name": "PAS PAKITA PraxisAusbildungs- &\nKindertagesst\u00e4tte", "tempo30": 2, "Strasse": "Niendorfer Marktplatz"}, {"Nummer": "20", "id": 210, "lat": 53.6185124, "lon": 9.9495275, "art": 1, "PLZ": "22459", "Name": "KiGa Wurzelzwerge", "tempo30": 2, "Strasse": "Niendorfer Marktplatz"}, {"Nummer": "126", "id": 211, "lat": 53.6206682, "lon": 10.1350933525819, "art": 1, "PLZ": "22147", "Name": "KiTa Bekassinenau", "tempo30": 2, "Strasse": "Bekassinenau"}, {"Nummer": "43", "id": 212, "lat": 53.63023275, "lon": 10.1673441296282, "art": 1, "PLZ": "22145", "Name": "H\u00fcpfzwerge", "tempo30": 2, "Strasse": "Nordlandweg"}, {"Nummer": "23", "id": 213, "lat": 53.5728735, "lon": 9.88597310174418, "art": 1, "PLZ": "22607", "Name": "KiTa Rasselbande", "tempo30": 2, "Strasse": "Notkestra\u00dfe"}, {"Nummer": "85", "id": 214, "lat": 53.5764539, "lon": 9.8808542, "art": 1, "PLZ": "22607", "Name": "Kinderwelt@DESY", "tempo30": 2, "Strasse": "Notkestra\u00dfe"}, {"Nummer": "10", "id": 215, "lat": 53.506614657091674, "lon": 10.177008781170526, "art": 1, "PLZ": "21033", "Name": "KiTa L\u00f6wenzahn am Unfallkrankenhaus Hamburg", "tempo30": 2, "Strasse": "Bergedorfer Stra\u00dfe"}, {"Nummer": "10", "id": 216, "lat": 53.506420198151396, "lon": 10.176681849218852, "art": 4, "PLZ": "21033", "Name": "BG Klinikum Hamburg gGmbH", "tempo30": 2, "Strasse": "Bergedorfer Stra\u00dfe"}, {"Nummer": "128a", "id": 217, "lat": 53.5499089, "lon": 9.9039752, "art": 1, "PLZ": "22605", "Name": "KiTa Bernadottestra\u00dfe", "tempo30": 2, "Strasse": "Bernadottestra\u00dfe"}, {"Nummer": "140", "id": 218, "lat": 53.55003865, "lon": 9.90300019793635, "art": 3, "PLZ": "22605", "Name": "Fallen Anker", "tempo30": 2, "Strasse": "Bernadottestra\u00dfe"}, {"Nummer": "66", "id": 219, "lat": 53.6267608, "lon": 10.1222225, "art": 1, "PLZ": "22159", "Name": "AWO Kita Sonnenh\u00fcgel", "tempo30": 2, "Strasse": "Berner Allee"}, {"Nummer": "3", "id": 220, "lat": 53.6267608, "lon": 10.1222225, "art": 3, "PLZ": "22159", "Name": "Seniorenwohnanlage Waldd\u00f6rfer", "tempo30": 2, "Strasse": "Berner Allee"}, {"Nummer": "37-41", "id": 221, "lat": 53.6182371, "lon": 10.0866210363986, "art": 3, "PLZ": "22175", "Name": "Theodor-Fliedner-Haus", "tempo30": 2, "Strasse": "Berner Chaussee"}, {"Nummer": "30", "id": 222, "lat": 53.5962092, "lon": 10.0023712, "art": 1, "PLZ": "22299", "Name": "KiGa Stadtparkknirpse", "tempo30": 2, "Strasse": "Ohlsdorfer Stra\u00dfe"}, {"Nummer": "162", "id": 223, "lat": 53.60513985, "lon": 10.1202897572752, "art": 1, "PLZ": "22159", "Name": "KiTa Berner Heerweg", "tempo30": 2, "Strasse": "Berner Heerweg"}, {"Nummer": "114", "id": 224, "lat": 53.62311065, "lon": 10.1469164190099, "art": 1, "PLZ": "22145", "Name": "Hummelhaus", "tempo30": 2, "Strasse": "Berner Stra\u00dfe"}, {"Nummer": "97", "id": 225, "lat": 53.5747658, "lon": 10.1343015382297, "art": 3, "PLZ": "22043", "Name": "DOMICIL - Seniorenpflegeheim Jenfeld GmbH", "tempo30": 2, "Strasse": "\u00d6jendorfer Damm"}, {"Nummer": "2", "id": 226, "lat": 53.4430336, "lon": 9.9541591, "art": 1, "PLZ": "21077", "Name": "KiTa Beutnerring", "tempo30": 2, "Strasse": "Beutnerring"}, {"Nummer": "32", "id": 227, "lat": 53.5424234, "lon": 10.1107211, "art": 1, "PLZ": "22119", "Name": "KiGa Falkennest", "tempo30": 2, "Strasse": "\u00d6jendorfer Weg"}, {"Nummer": "30a", "id": 228, "lat": 53.5421651, "lon": 10.1105657, "art": 1, "PLZ": "22119", "Name": "Musik-Kita Palaststrolche", "tempo30": 2, "Strasse": "\u00d6jendorfer Weg"}, {"Nummer": "12", "id": 229, "lat": 53.5416553, "lon": 10.0971528094765, "art": 1, "PLZ": "22111", "Name": "FR\u00d6BEL - KIndergarten Billstedt", "tempo30": 2, "Strasse": "Billstedter Hauptstra\u00dfe"}, {"Nummer": "112", "id": 230, "lat": 53.5363846, "lon": 10.1092561, "art": 1, "PLZ": "22117", "Name": "KiTa Billstedter Hauptstra\u00dfe", "tempo30": 2, "Strasse": "Billstedter Hauptstra\u00dfe"}, {"Nummer": "27", "id": 231, "lat": 53.6085124, "lon": 10.1552338783617, "art": 1, "PLZ": "22143", "Name": "Kath. KiTa Sonnenblume", "tempo30": 2, "Strasse": "Oldenfelder Stra\u00dfe"}, {"Nummer": "122", "id": 232, "lat": 53.6377813, "lon": 9.921693, "art": 1, "PLZ": "22457", "Name": "KiTa K\u00f6nigskinderladen", "tempo30": 2, "Strasse": "Oldesloer Stra\u00dfe"}, {"Nummer": "78", "id": 233, "lat": 53.58439825, "lon": 10.1012020409389, "art": 3, "PLZ": "22047", "Name": "PRO VITA Seniorenpflegeheim \"Emilienhof\"\"\"", "tempo30": 2, "Strasse": "\u00d6lm\u00fchlenweg"}, {"Nummer": "33", "id": 234, "lat": 53.58260055, "lon": 10.1009938034905, "art": 1, "PLZ": "22047", "Name": "KiTa M\u00fchlenhof", "tempo30": 2, "Strasse": "\u00d6lm\u00fchlenweg"}, {"Nummer": "137", "id": 235, "lat": 53.572262188780314, "lon": 9.86066606111899, "art": 1, "PLZ": "22609", "Name": "FR\u00d6BEL-Kindergarten Elbwichtel", "tempo30": 2, "Strasse": "Osdorfer Landstra\u00dfe"}, {"Nummer": "323a", "id": 236, "lat": 53.5743614, "lon": 9.83329385164464, "art": 1, "PLZ": "22589", "Name": "Mulles Kindergarten", "tempo30": 2, "Strasse": "Osdorfer Landstra\u00dfe"}, {"Nummer": "28", "id": 237, "lat": 53.57182485, "lon": 9.86925282466789, "art": 3, "PLZ": "22607", "Name": "Ev. Bugenhagen-Haus", "tempo30": 2, "Strasse": "Osdorfer Landstra\u00dfe"}, {"Nummer": "24", "id": 238, "lat": 53.5677422, "lon": 9.89428997207534, "art": 2, "PLZ": "22607", "Name": "Grundschule Gro\u00df Flottbek", "tempo30": 2, "Strasse": "Osdorfer Weg"}, {"Nummer": "64", "id": 239, "lat": 53.568188891749806, "lon": 9.888371925424256, "art": 1, "PLZ": "22607", "Name": "KiTa Villa Vivendi 2", "tempo30": 2, "Strasse": "Osdorfer Weg"}, {"Nummer": "122", "id": 240, "lat": 53.5706034, "lon": 9.8378851, "art": 1, "PLZ": "22589", "Name": "KiTa L\u00fctt Tabea", "tempo30": 2, "Strasse": "Bockhorst"}, {"Nummer": "45", "id": 241, "lat": 53.485772, "lon": 10.0160921, "art": 1, "PLZ": "21109", "Name": "KiTa Otto-Brenner-Stra\u00dfe", "tempo30": 2, "Strasse": "Otto-Brenner-Stra\u00dfe"}, {"Nummer": "26", "id": 242, "lat": 53.5665971, "lon": 10.0195785, "art": 1, "PLZ": "22087", "Name": "KiTa Auf der Uhlenhorst", "tempo30": 2, "Strasse": "Papenhuder Stra\u00dfe"}, {"Nummer": "1", "id": 243, "lat": 53.5544891, "lon": 9.9003539, "art": 1, "PLZ": "22763", "Name": "KiTa Elbtunnelkids AK Altona", "tempo30": 2, "Strasse": "Paul-Ehrlich-Stra\u00dfe"}, {"Nummer": "1", "id": 244, "lat": 53.5544891, "lon": 9.9003539, "art": 4, "PLZ": "22763", "Name": "Asklepios Klinik Altona", "tempo30": 2, "Strasse": "Paul-Ehrlich-Stra\u00dfe"}, {"Nummer": "17 a", "id": 245, "lat": 53.5915768, "lon": 10.0135060495407, "art": 2, "PLZ": "22303", "Name": "Bildungszentrum f\u00fcr Blinde und Sehbehinderte", "tempo30": 2, "Strasse": "Borgweg"}, {"Nummer": "23", "id": 246, "lat": 53.58360455, "lon": 9.85270799357403, "art": 1, "PLZ": "22549", "Name": "Kinderbetreuungszentrum Bunte Biene", "tempo30": 2, "Strasse": "Bornheide"}, {"Nummer": "99", "id": 247, "lat": 53.5932812, "lon": 9.8525921, "art": 1, "PLZ": "22549", "Name": "KiTa am Spielhafen", "tempo30": 2, "Strasse": "Bornheide"}, {"Nummer": "23", "id": 248, "lat": 53.62069175942667, "lon": 10.100141303907964, "art": 1, "PLZ": "22175", "Name": "KiTa Lucky Kids", "tempo30": 2, "Strasse": "Pezolddamm"}, {"Nummer": "139a", "id": 249, "lat": 53.60784703609647, "lon": 9.976850893796248, "art": 1, "PLZ": "22453", "Name": "Ev. KiGa St. Peter", "tempo30": 2, "Strasse": "Borsteler Chaussee"}, {"Nummer": "90a", "id": 250, "lat": 53.59465855, "lon": 10.0924876043101, "art": 1, "PLZ": "22047", "Name": "ASB Kita Pillauer Stra\u00dfe", "tempo30": 2, "Strasse": "Pillauer Stra\u00dfe"}, {"Nummer": "51", "id": 251, "lat": 53.6002184, "lon": 10.0050894, "art": 1, "PLZ": "22297", "Name": "Ev. KiTa der Paul-Gerhardt Gemeinde", "tempo30": 2, "Strasse": "Braamkamp"}, {"Nummer": "2", "id": 252, "lat": 53.669643282848504, "lon": 10.06478099404524, "art": 3, "PLZ": "22399", "Name": "Tagespflege Poppenb\u00fcttel e.V.", "tempo30": 2, "Strasse": "Poppenb\u00fctteler Bogen"}, {"Nummer": "23", "id": 253, "lat": 53.7053105, "lon": 10.1029381, "art": 3, "PLZ": "22397", "Name": "Haus Duvenstedt", "tempo30": 2, "Strasse": "Poppenb\u00fctteler Chaussee"}, {"Nummer": "184", "id": 254, "lat": 53.6520598, "lon": 10.0749945290843, "art": 1, "PLZ": "22399", "Name": "KiTa Poppenb\u00fctteler Weg", "tempo30": 2, "Strasse": "Poppenb\u00fctteler Weg"}, {"Nummer": "1", "id": 255, "lat": 53.5937474, "lon": 10.0588989, "art": 1, "PLZ": "22177", "Name": "KiTa KiKu Kinderland Hamburg", "tempo30": 2, "Strasse": "Bramfelder Chaussee"}, {"Nummer": "20a", "id": 256, "lat": 53.59415775, "lon": 10.0608570248541, "art": 1, "PLZ": "22177", "Name": "KiTa Lilliputs", "tempo30": 2, "Strasse": "Bramfelder Chaussee"}, {"Nummer": "186-190", "id": 257, "lat": 53.6567639, "lon": 10.0851418, "art": 3, "PLZ": "22399", "Name": "Stiftung Veteranenheim", "tempo30": 2, "Strasse": "Poppenb\u00fctteler Weg"}, {"Nummer": "14a", "id": 258, "lat": 53.5938936, "lon": 10.06053545, "art": 1, "PLZ": "22177", "Name": "KiGa Bramfeld e. V.", "tempo30": 2, "Strasse": "Bramfelder Chaussee"}, {"Nummer": "197", "id": 259, "lat": 53.6588942, "lon": 10.0846420839142, "art": 1, "PLZ": "22399", "Name": "AWO Kita Villa Kunterbunt", "tempo30": 2, "Strasse": "Poppenb\u00fctteler Weg"}, {"Nummer": "202b", "id": 260, "lat": 53.60960095, "lon": 10.0744596553233, "art": 1, "PLZ": "22177", "Name": "Ev. KiGa Osterkirche", "tempo30": 2, "Strasse": "Bramfelder Chaussee"}, {"Nummer": "44", "id": 261, "lat": 53.66594965, "lon": 10.0927758033019, "art": 1, "PLZ": "22399", "Name": "AWO Kita Hohenbuchen", "tempo30": 2, "Strasse": "Poppenb\u00fcttler Hauptstra\u00dfe"}, {"Nummer": "29", "id": 262, "lat": 53.5956958, "lon": 10.0614191043834, "art": 3, "PLZ": "22177", "Name": "SHT Seniorenzentrum Hanse Tagespflege UG", "tempo30": 2, "Strasse": "Bramfelder Chaussee"}, {"Nummer": "46", "id": 263, "lat": 53.666057, "lon": 10.09298195, "art": 1, "PLZ": "22399", "Name": "KiGa Menschenskinder", "tempo30": 2, "Strasse": "Poppenb\u00fcttler Hauptstra\u00dfe"}, {"Nummer": "5", "id": 264, "lat": 53.61472105, "lon": 10.0776103865918, "art": 2, "PLZ": "22179", "Name": "Stadtteilschule Bramfeld", "tempo30": 2, "Strasse": "Bramfelder Dorfplatz"}, {"Nummer": "157", "id": 265, "lat": 53.5928834, "lon": 10.0574659320422, "art": 2, "PLZ": "22305", "Name": "Stadtteilschule Barmbek", "tempo30": 2, "Strasse": "Bramfelder Stra\u00dfe"}, {"Nummer": "153", "id": 266, "lat": 53.5923294, "lon": 10.0568656, "art": 1, "PLZ": "22305", "Name": "KiTa Kinderzimmer Seebek", "tempo30": 2, "Strasse": "Bramfelder Stra\u00dfe"}, {"Nummer": "57", "id": 267, "lat": 53.6946482, "lon": 10.130328, "art": 1, "PLZ": "22397", "Name": "Ev. KiGa Am Kirchberg", "tempo30": 2, "Strasse": "Bredenbekstra\u00dfe"}, {"Nummer": "30", "id": 268, "lat": 53.5859604, "lon": 9.9735973, "art": 1, "PLZ": "20251", "Name": "KiTa Melia Wohlf\u00fchl- und Bildungskinderladen\nGbR", "tempo30": 2, "Strasse": "Breitenfelder Stra\u00dfe"}, {"Nummer": "105b", "id": 269, "lat": 53.451986, "lon": 9.9734766417842, "art": 1, "PLZ": "21073", "Name": "KiTa Bremer Stra\u00dfe", "tempo30": 2, "Strasse": "Bremer Stra\u00dfe"}, {"Nummer": "242a", "id": 270, "lat": 53.44379955, "lon": 9.94902039847561, "art": 1, "PLZ": "21077", "Name": "Naturkindergarten Vogelh\u00fcttenberg", "tempo30": 2, "Strasse": "Bremer Stra\u00dfe"}, {"Nummer": "2", "id": 271, "lat": 53.5962442730661, "lon": 10.152713072488663, "art": 2, "PLZ": "22149", "Name": "Grundschule Altrahlstedt", "tempo30": 2, "Strasse": "Brockdorffstra\u00dfe"}, {"Nummer": "4", "id": 272, "lat": 53.599598282254945, "lon": 10.118714604930373, "art": 1, "PLZ": "22159", "Name": "Kinderkate", "tempo30": 2, "Strasse": "Pulverhofsweg"}, {"Nummer": "68", "id": 273, "lat": 53.63512305, "lon": 9.94283357160219, "art": 1, "PLZ": "22455", "Name": "KiTa Happy Land", "tempo30": 2, "Strasse": "Quedlinburger Weg"}, {"Nummer": "43", "id": 274, "lat": 53.6024754, "lon": 10.1547768, "art": 1, "PLZ": "22143", "Name": "KiTa Rahlstedter Bahnhofstra\u00dfe", "tempo30": 2, "Strasse": "Rahlstedter Bahnhofstra\u00dfe"}, {"Nummer": "13", "id": 275, "lat": 53.5517077, "lon": 9.9671857, "art": 1, "PLZ": "20359", "Name": "KiTa Mafalda", "tempo30": 2, "Strasse": "Budapester Stra\u00dfe"}, {"Nummer": "34", "id": 276, "lat": 53.5539932, "lon": 9.9646013, "art": 1, "PLZ": "20359", "Name": "Ev. KiTa St. Pauli", "tempo30": 2, "Strasse": "Budapester Stra\u00dfe"}, {"Nummer": "49", "id": 277, "lat": 53.5949443, "lon": 10.1460739, "art": 1, "PLZ": "22149", "Name": "Fliegenpilz Rahlstedt", "tempo30": 2, "Strasse": "Rahlstedter Stra\u00dfe"}, {"Nummer": "42", "id": 278, "lat": 53.5547848, "lon": 9.96428853052495, "art": 1, "PLZ": "20359", "Name": "KiTa Kinderladen Karolinenviertel", "tempo30": 2, "Strasse": "Budapester Stra\u00dfe"}, {"Nummer": "64", "id": 279, "lat": 53.5951864, "lon": 10.1495778, "art": 1, "PLZ": "22149", "Name": "KiTa R\u00e4uberh\u00f6hle Rahlstedt", "tempo30": 2, "Strasse": "Rahlstedter Stra\u00dfe"}, {"Nummer": "38", "id": 280, "lat": 53.5545149, "lon": 9.9644452, "art": 4, "PLZ": "20359", "Name": "Psychiatrische Tagesklinik Hamburg-Mitte", "tempo30": 2, "Strasse": "Budapester Stra\u00dfe"}, {"Nummer": "112", "id": 281, "lat": 53.6003994, "lon": 10.1569394, "art": 1, "PLZ": "22143", "Name": "Kinderhaus Rahlstedt", "tempo30": 2, "Strasse": "Rahlstedter Stra\u00dfe"}, {"Nummer": "189", "id": 282, "lat": 53.604839, "lon": 10.1610852, "art": 3, "PLZ": "22143", "Name": "Tagespflege Sozialer Dienst K.Kaiser GmbH", "tempo30": 2, "Strasse": "Rahlstedter Stra\u00dfe"}, {"Nummer": "29", "id": 283, "lat": 53.5938102, "lon": 10.1424262, "art": 3, "PLZ": "22149", "Name": "Parkresidenz Rahlstedt", "tempo30": 2, "Strasse": "Rahlstedter Stra\u00dfe"}, {"Nummer": "15", "id": 284, "lat": 53.60721102357102, "lon": 10.12207403999478, "art": 2, "PLZ": "22159", "Name": "Katholische Schule Farmsen", "tempo30": 2, "Strasse": "Rahlstedter Weg"}, {"Nummer": "15", "id": 285, "lat": 53.60705738210972, "lon": 10.121926067164987, "art": 1, "PLZ": "22159", "Name": "Kath. KiGa Arche Noah", "tempo30": 2, "Strasse": "Rahlstedter Weg"}, {"Nummer": "15", "id": 286, "lat": 53.6067281488615, "lon": 10.12180275647349, "art": 1, "PLZ": "22159", "Name": "Hort an der Katholischen Schule Farmsen", "tempo30": 2, "Strasse": "Rahlstedter Weg"}, {"Nummer": "89", "id": 287, "lat": 53.60030295, "lon": 10.1297659191584, "art": 1, "PLZ": "22147", "Name": "WABE-Kita Rahlstedter Weg", "tempo30": 2, "Strasse": "Rahlstedter Weg"}, {"Nummer": "3a", "id": 288, "lat": 53.6366367, "lon": 9.9166007743311, "art": 1, "PLZ": "22457", "Name": "ASB Kita Burgwedel", "tempo30": 2, "Strasse": "Burgwedel"}, {"Nummer": "17", "id": 289, "lat": 53.606222, "lon": 10.1217977219013, "art": 3, "PLZ": "22159", "Name": "Malteserstift St. Elisabeth", "tempo30": 2, "Strasse": "Rahlstedter Weg"}, {"Nummer": "3b", "id": 290, "lat": 53.6366559, "lon": 9.91641994819856, "art": 1, "PLZ": "22457", "Name": "KiTa Kindsk\u00f6pfe", "tempo30": 2, "Strasse": "Burgwedel"}, {"Nummer": "55", "id": 291, "lat": 53.5615575, "lon": 10.0604446, "art": 1, "PLZ": "20535", "Name": "Ev. KiTa Pauluskirche", "tempo30": 2, "Strasse": "Caspar-Voght-Stra\u00dfe"}, {"Nummer": "379", "id": 292, "lat": 53.4717906, "lon": 9.84532793581618, "art": 2, "PLZ": "21149", "Name": "Katholische Schule Neugraben", "tempo30": 2, "Strasse": "Cuxhavener Stra\u00dfe"}, {"Nummer": "178", "id": 293, "lat": 53.4723539, "lon": 9.88412217570082, "art": 1, "PLZ": "21149", "Name": "KiGa Don Bosco", "tempo30": 2, "Strasse": "Cuxhavener Stra\u00dfe"}, {"Nummer": "192", "id": 294, "lat": 53.47230355, "lon": 9.88154352726143, "art": 1, "PLZ": "21149", "Name": "KiTa Cuxi Kids", "tempo30": 2, "Strasse": "Cuxhavener Stra\u00dfe"}, {"Nummer": "323", "id": 295, "lat": 53.470924487824824, "lon": 9.828525527547647, "art": 1, "PLZ": "21149", "Name": "Ev. KiGa Michaelis", "tempo30": 2, "Strasse": "Cuxhavener Stra\u00dfe"}, {"Nummer": "38a", "id": 296, "lat": 53.4761738, "lon": 9.87552992637735, "art": 1, "PLZ": "21147", "Name": "KiTa Rehrstieg", "tempo30": 2, "Strasse": "Rehrstieg"}, {"Nummer": "120", "id": 297, "lat": 53.57772235, "lon": 10.0531457505263, "art": 1, "PLZ": "22081", "Name": "KiTa Klinikum Eilbek, Sch\u00f6n Kliniken", "tempo30": 2, "Strasse": "Dehnhaide"}, {"Nummer": "120", "id": 298, "lat": 53.57772235, "lon": 10.0531457505263, "art": 4, "PLZ": "22081", "Name": "Sch\u00f6n Klinik Hamburg Eilbek", "tempo30": 2, "Strasse": "Dehnhaide"}, {"Nummer": "51-53", "id": 299, "lat": 53.5568279, "lon": 10.0820794797943, "art": 3, "PLZ": "22111", "Name": "Seniorenzentrum Kapernaum", "tempo30": 2, "Strasse": "Rennbahnstra\u00dfe"}, {"Nummer": "56", "id": 300, "lat": 53.5586112, "lon": 9.88825304163506, "art": 1, "PLZ": "22605", "Name": "KiTa Kinderhaus Reventlowstra\u00dfe", "tempo30": 2, "Strasse": "Reventlowstra\u00dfe"}, {"Nummer": "27", "id": 301, "lat": 53.5782405, "lon": 10.0601155, "art": 1, "PLZ": "22049", "Name": "KiTa Meine Kita", "tempo30": 2, "Strasse": "Dithmarscher Stra\u00dfe"}, {"Nummer": "41", "id": 302, "lat": 53.5684035, "lon": 9.9536144, "art": 1, "PLZ": "20259", "Name": "Deutsch-Chinesischer Kindergarten Hamburg", "tempo30": 2, "Strasse": "Doormannsweg"}, {"Nummer": "111", "id": 303, "lat": 53.5710323, "lon": 10.108559, "art": 1, "PLZ": "22043", "Name": "KiTa Lieblings-Kita", "tempo30": 2, "Strasse": "Rodigallee"}, {"Nummer": "207", "id": 304, "lat": 53.5712576, "lon": 10.1208121, "art": 1, "PLZ": "22043", "Name": "Ev. KiTa Der Gute Hirte-Jenfeld", "tempo30": 2, "Strasse": "Rodigallee"}, {"Nummer": "28a", "id": 305, "lat": 53.63974875, "lon": 10.0862934941297, "art": 1, "PLZ": "22391", "Name": "KiGa Franzh\u00f6rnchen", "tempo30": 2, "Strasse": "Rolfinckstra\u00dfe"}, {"Nummer": "70", "id": 306, "lat": 53.510847, "lon": 10.2104843, "art": 1, "PLZ": "21031", "Name": "KiTa Regenbogen", "tempo30": 2, "Strasse": "R\u00f6praredder"}, {"Nummer": "55", "id": 307, "lat": 53.56743045, "lon": 9.88795463607074, "art": 1, "PLZ": "22607", "Name": "Ev. KiTa der Melanchthonkirchengemeinde", "tempo30": 2, "Strasse": "Ebertallee"}, {"Nummer": "11a", "id": 308, "lat": 53.5638414, "lon": 9.88621709510481, "art": 1, "PLZ": "22607", "Name": "Kath. KiGa St. Paulus-Augustinus", "tempo30": 2, "Strasse": "Ebertallee"}, {"Nummer": "121", "id": 309, "lat": 53.5731164, "lon": 9.98813565228702, "art": 1, "PLZ": "20149", "Name": "KiTa Kinderhaus Rothenbaumchaussee 121", "tempo30": 2, "Strasse": "Rothenbaumchaussee"}, {"Nummer": "235b", "id": 310, "lat": 53.47314995, "lon": 10.2632296, "art": 1, "PLZ": "21029", "Name": "AWO Wald- Kita Bergedorf", "tempo30": 2, "Strasse": "Rothenhauschaussee"}, {"Nummer": "148", "id": 311, "lat": 53.45517905, "lon": 9.93517775616398, "art": 3, "PLZ": "21075", "Name": "Marie Kroos-Stiftung", "tempo30": 2, "Strasse": "Ehestorfer Weg"}, {"Nummer": "15", "id": 312, "lat": 53.589257, "lon": 10.0400929116243, "art": 1, "PLZ": "22305", "Name": "KiTa R\u00fcbenkamp", "tempo30": 2, "Strasse": "R\u00fcbenkamp"}, {"Nummer": "22", "id": 313, "lat": 53.5751775, "lon": 9.8472851, "art": 1, "PLZ": "22549", "Name": "Haus Mignon Krippe", "tempo30": 2, "Strasse": "Rugenbarg"}, {"Nummer": "7", "id": 314, "lat": 53.4939873, "lon": 10.1230402, "art": 1, "PLZ": "21035", "Name": "WABE-Kita Wirbelkinder", "tempo30": 2, "Strasse": "Rungedamm"}, {"Nummer": "34", "id": 315, "lat": 53.65260140393985, "lon": 10.06231123119156, "art": 1, "PLZ": "22399", "Name": "Klitzeklein&kunterbunt", "tempo30": 2, "Strasse": "Ruscheweyhstra\u00dfe"}, {"Nummer": "39", "id": 316, "lat": 53.5690026, "lon": 10.0435255, "art": 1, "PLZ": "22089", "Name": "KiTa Paula und Max - Eilbeker Weg", "tempo30": 2, "Strasse": "Eilbeker Weg"}, {"Nummer": "66", "id": 317, "lat": 53.57512825, "lon": 10.0768001771405, "art": 1, "PLZ": "22041", "Name": "KiTa WandseWichte", "tempo30": 2, "Strasse": "R\u00fcterstra\u00dfe"}, {"Nummer": "53", "id": 318, "lat": 53.5691306, "lon": 10.0444607, "art": 1, "PLZ": "22089", "Name": "KiTa Eilbeker Weg", "tempo30": 2, "Strasse": "Eilbeker Weg"}, {"Nummer": "30", "id": 319, "lat": 53.58758992872814, "lon": 10.033847462867111, "art": 2, "PLZ": "22303", "Name": "OKO Private School Talent-Schule Hamburg", "tempo30": 2, "Strasse": "Saarlandstra\u00dfe"}, {"Nummer": "15", "id": 320, "lat": 53.5721093, "lon": 10.0466748, "art": 1, "PLZ": "22089", "Name": "Ev. KiTa Vers\u00f6hnungskirche", "tempo30": 2, "Strasse": "Eilbektal"}, {"Nummer": "52", "id": 321, "lat": 53.4594946, "lon": 9.94855714526893, "art": 4, "PLZ": "21075", "Name": "Asklepios Klinikum Harburg", "tempo30": 2, "Strasse": "Ei\u00dfendorfer Pferdeweg"}, {"Nummer": "52", "id": 322, "lat": 53.4594946, "lon": 9.94855714526893, "art": 1, "PLZ": "21075", "Name": "KiTa Kunterbunt der Asklepios Klinik Harburg", "tempo30": 2, "Strasse": "Ei\u00dfendorfer Pferdeweg"}, {"Nummer": "35", "id": 323, "lat": 53.55416265, "lon": 10.0889740611646, "art": 1, "PLZ": "22111", "Name": "KiTa Sandkamp", "tempo30": 2, "Strasse": "Sandkamp"}, {"Nummer": "366", "id": 324, "lat": 53.54909065, "lon": 9.85672081233032, "art": 2, "PLZ": "22609", "Name": "Rudolf-Steiner-Schule Nienstedten", "tempo30": 2, "Strasse": "Elbchaussee"}, {"Nummer": "18", "id": 325, "lat": 53.54676725, "lon": 9.93073177389857, "art": 1, "PLZ": "22765", "Name": "Tagesm\u00fctter an der Elbe", "tempo30": 2, "Strasse": "Elbchaussee"}, {"Nummer": "174", "id": 326, "lat": 53.546045666868196, "lon": 9.909780708276399, "art": 1, "PLZ": "22605", "Name": "KiTa Elbchaussee", "tempo30": 2, "Strasse": "Elbchaussee"}, {"Nummer": "366", "id": 327, "lat": 53.54909065, "lon": 9.85672081233032, "art": 1, "PLZ": "22609", "Name": "Hort an der Rudolf- Steiner- Schule Nienstedten", "tempo30": 2, "Strasse": "Elbchaussee"}, {"Nummer": "86a", "id": 328, "lat": 53.64269725, "lon": 10.0990195666316, "art": 1, "PLZ": "22391", "Name": "Schneckenh\u00e4uschen", "tempo30": 2, "Strasse": "Saseler Chaussee"}, {"Nummer": "366", "id": 329, "lat": 53.54909065, "lon": 9.85672081233032, "art": 1, "PLZ": "22609", "Name": "KiTa der Rudolf-Steiner-Schule Nienstedten", "tempo30": 2, "Strasse": "Elbchaussee"}, {"Nummer": "7", "id": 330, "lat": 53.6546957, "lon": 10.1134432867549, "art": 1, "PLZ": "22393", "Name": "Ev. KiGa Vicelin-Sasel", "tempo30": 2, "Strasse": "Saseler Markt"}, {"Nummer": "88", "id": 331, "lat": 53.54695695, "lon": 9.92320727466216, "art": 3, "PLZ": "22763", "Name": "Auguste-Viktoria-Stiftung", "tempo30": 2, "Strasse": "Elbchaussee"}, {"Nummer": "374", "id": 332, "lat": 53.549438, "lon": 9.8526359, "art": 3, "PLZ": "22609", "Name": "Elbschloss Residenz", "tempo30": 2, "Strasse": "Elbchaussee"}, {"Nummer": "172h", "id": 333, "lat": 53.5971526, "lon": 9.8850663, "art": 1, "PLZ": "22547", "Name": "KiTa Elbgaustra\u00dfe", "tempo30": 2, "Strasse": "Elbgaustra\u00dfe"}, {"Nummer": "27", "id": 334, "lat": 53.56818015, "lon": 9.96759786278815, "art": 2, "PLZ": "20357", "Name": "Monaddrei-Schule Hamburg", "tempo30": 2, "Strasse": "Sch\u00e4ferkampsallee"}, {"Nummer": "27", "id": 335, "lat": 53.56818015, "lon": 9.96759786278815, "art": 1, "PLZ": "20357", "Name": "KiTa Montessori Kinderhaus monaddrei", "tempo30": 2, "Strasse": "Sch\u00e4ferkampsallee"}, {"Nummer": "109a", "id": 336, "lat": 53.564381229517465, "lon": 9.965220894000927, "art": 1, "PLZ": "20357", "Name": "Sternschnuppen", "tempo30": 2, "Strasse": "Schanzenstra\u00dfe"}, {"Nummer": "27", "id": 337, "lat": 53.59872255, "lon": 10.1490177074878, "art": 1, "PLZ": "22147", "Name": "Park-Kita Altrahlstedt", "tempo30": 2, "Strasse": "Scharbeutzer Stra\u00dfe"}, {"Nummer": "54", "id": 338, "lat": 53.6005041, "lon": 10.1425295779685, "art": 3, "PLZ": "22147", "Name": "HSB-Familientagespflege", "tempo30": 2, "Strasse": "Scharbeutzer Stra\u00dfe"}, {"Nummer": "14", "id": 339, "lat": 53.58582515, "lon": 9.98333397559666, "art": 1, "PLZ": "20249", "Name": "KiGa Hamburger Kinderst\u00fcbchen", "tempo30": 2, "Strasse": "Eppendorfer Landstra\u00dfe"}, {"Nummer": "148a", "id": 340, "lat": 53.59496065, "lon": 9.98941490097608, "art": 1, "PLZ": "20251", "Name": "AWO Kita Haynspark", "tempo30": 2, "Strasse": "Eppendorfer Landstra\u00dfe"}, {"Nummer": "253", "id": 341, "lat": 53.58125295, "lon": 9.82249817410458, "art": 1, "PLZ": "22589", "Name": "Villa Schief", "tempo30": 2, "Strasse": "Schenefelder Landstra\u00dfe"}, {"Nummer": "1", "id": 342, "lat": 53.56125575, "lon": 9.82357105, "art": 1, "PLZ": "22587", "Name": "Bilinguale Kita Blankenese", "tempo30": 2, "Strasse": "Schenefelder Landstra\u00dfe"}, {"Nummer": "3", "id": 343, "lat": 53.56157685, "lon": 9.82358485727848, "art": 1, "PLZ": "22587", "Name": "Kath. KiGa Maria Gr\u00fcn", "tempo30": 2, "Strasse": "Schenefelder Landstra\u00dfe"}, {"Nummer": "34", "id": 344, "lat": 53.5634075, "lon": 9.8262423, "art": 1, "PLZ": "22587", "Name": "Blankeneser Waldorfkindergarten  e. V.", "tempo30": 2, "Strasse": "Schenefelder Landstra\u00dfe"}, {"Nummer": "87", "id": 345, "lat": 53.5676098, "lon": 9.8261795, "art": 1, "PLZ": "22589", "Name": "KiGa Schenefelder Landstra\u00dfe", "tempo30": 2, "Strasse": "Schenefelder Landstra\u00dfe"}, {"Nummer": "89", "id": 346, "lat": 53.63255345, "lon": 10.0176849671727, "art": 2, "PLZ": "22335", "Name": "Gymnasium Alstertal", "tempo30": 2, "Strasse": "Erdkampsweg"}, {"Nummer": "83", "id": 347, "lat": 53.5470857, "lon": 10.106183, "art": 1, "PLZ": "22119", "Name": "KiTa Schmusebacke 4", "tempo30": 2, "Strasse": "Schiffbeker Weg"}, {"Nummer": "64", "id": 348, "lat": 53.63065995, "lon": 10.0218126325575, "art": 1, "PLZ": "22335", "Name": "KiTa Erdkampsweg", "tempo30": 2, "Strasse": "Erdkampsweg"}, {"Nummer": "84", "id": 349, "lat": 53.6317441, "lon": 10.02037, "art": 1, "PLZ": "22335", "Name": "KiTa L\u00fctte Sternenkieker", "tempo30": 2, "Strasse": "Erdkampsweg"}, {"Nummer": "4", "id": 350, "lat": 53.5830293, "lon": 10.0338305, "art": 1, "PLZ": "22083", "Name": "KiGa Murmeltier", "tempo30": 2, "Strasse": "Schleidenstra\u00dfe"}, {"Nummer": "13", "id": 351, "lat": 53.5630046, "lon": 9.81452371967509, "art": 1, "PLZ": "22587", "Name": "KiTa Kinderhaus Strollers", "tempo30": 2, "Strasse": "Erik-Blumenfeld-Platz"}, {"Nummer": "54", "id": 352, "lat": 53.43853895, "lon": 9.96443613404406, "art": 2, "PLZ": "21077", "Name": "Schule Marmstorf", "tempo30": 2, "Strasse": "Ernst-Bergeest-Weg"}, {"Nummer": "46", "id": 353, "lat": 53.4390397, "lon": 9.9623219, "art": 1, "PLZ": "21077", "Name": "KiTa Ernst-Bergeest-Weg", "tempo30": 2, "Strasse": "Ernst-Bergeest-Weg"}, {"Nummer": "78", "id": 354, "lat": 53.5719924, "lon": 10.0724467, "art": 1, "PLZ": "22041", "Name": "Ev. KiGa L\u00fctten-Haus", "tempo30": 2, "Strasse": "Schlo\u00dfstra\u00dfe"}, {"Nummer": "117", "id": 355, "lat": 53.5890388, "lon": 10.1572699038071, "art": 1, "PLZ": "22149", "Name": "KiTa Knirps & Co", "tempo30": 2, "Strasse": "Sch\u00f6neberger Stra\u00dfe"}, {"Nummer": "121", "id": 356, "lat": 53.6038686, "lon": 10.0644951, "art": 1, "PLZ": "22177", "Name": "Villa Kinderbunt", "tempo30": 2, "Strasse": "Fabriciusstra\u00dfe"}, {"Nummer": "23", "id": 357, "lat": 53.59188245, "lon": 9.98488287170161, "art": 2, "PLZ": "20251", "Name": "Marie-Besch\u00fctz-Schule", "tempo30": 2, "Strasse": "Schottm\u00fcllerstra\u00dfe"}, {"Nummer": "52", "id": 358, "lat": 53.5977129, "lon": 10.0611784, "art": 1, "PLZ": "22177", "Name": "Ev. KiTa Thomaskirche", "tempo30": 2, "Strasse": "Fabriciusstra\u00dfe"}, {"Nummer": "72", "id": 359, "lat": 53.4632724, "lon": 9.97487524567706, "art": 2, "PLZ": "21073", "Name": "ReBBZ Harburg", "tempo30": 2, "Strasse": "Schwarzenbergstra\u00dfe"}, {"Nummer": "5", "id": 360, "lat": 53.5757342, "lon": 9.9479196, "art": 1, "PLZ": "20257", "Name": "Ev. KiGa Apostelkirche", "tempo30": 2, "Strasse": "Schwenckestra\u00dfe"}, {"Nummer": "181a", "id": 361, "lat": 53.65064585, "lon": 10.1604776399371, "art": 1, "PLZ": "22359", "Name": "Kath. KiGa Heilig Kreuz Hamburg-Volksdorf", "tempo30": 2, "Strasse": "Farmsener Landstra\u00dfe"}, {"Nummer": "71-75", "id": 362, "lat": 53.63991799164467, "lon": 10.155205414972105, "art": 3, "PLZ": "22359", "Name": "Feierabendhaus", "tempo30": 2, "Strasse": "Farmsener Landstra\u00dfe"}, {"Nummer": "50", "id": 363, "lat": 53.61516895, "lon": 10.020526719584, "art": 2, "PLZ": "22297", "Name": "ReBBZ Nord", "tempo30": 2, "Strasse": "Sengelmannstra\u00dfe"}, {"Nummer": "7", "id": 364, "lat": 53.5556937, "lon": 10.0424836, "art": 1, "PLZ": "20535", "Name": "KiGa Hort 1816 e.V.", "tempo30": 2, "Strasse": "Sievekingdamm"}, {"Nummer": "1", "id": 365, "lat": 53.5551979, "lon": 9.9751823, "art": 1, "PLZ": "20355", "Name": "KiTa Am Sievekingsplatz", "tempo30": 2, "Strasse": "Sievekingplatz"}, {"Nummer": "77", "id": 366, "lat": 53.56096135, "lon": 10.0591950301672, "art": 1, "PLZ": "20535", "Name": "KiTa Hammer Strolche der Ev.-freik. Gemeinde\nHamm", "tempo30": 2, "Strasse": "Sievekingsallee"}, {"Nummer": "186", "id": 367, "lat": 53.5565249, "lon": 10.0785219, "art": 1, "PLZ": "22111", "Name": "KiTa Kleine Wissenschaftler", "tempo30": 2, "Strasse": "Sievekingsallee"}, {"Nummer": "14", "id": 368, "lat": 53.5337129, "lon": 9.865744, "art": 1, "PLZ": "21129", "Name": "DRK Kindertagesst\u00e4tte Elbhalle", "tempo30": 2, "Strasse": "Finkenwerder Norderdeich"}, {"Nummer": "12a", "id": 369, "lat": 53.5605152, "lon": 10.0431469, "art": 1, "PLZ": "20535", "Name": "Ev. KiTa Simeonkirche Hamm", "tempo30": 2, "Strasse": "Sievekingsallee"}, {"Nummer": "83", "id": 370, "lat": 53.55100825, "lon": 9.9634766, "art": 1, "PLZ": "20359", "Name": "KiTa Zapperlott", "tempo30": 2, "Strasse": "Simon-von-Utrecht-Stra\u00dfe"}, {"Nummer": "113", "id": 371, "lat": 53.5513442, "lon": 9.95670487409468, "art": 1, "PLZ": "22767", "Name": "Kath. KiTa St. Joseph", "tempo30": 2, "Strasse": "Simon-von-Utrecht-Stra\u00dfe"}, {"Nummer": "4c", "id": 372, "lat": 53.5519644, "lon": 9.96188923022749, "art": 1, "PLZ": "20359", "Name": "KiTa Kinderland Hamburg", "tempo30": 2, "Strasse": "Simon-von-Utrecht-Stra\u00dfe"}, {"Nummer": "40", "id": 373, "lat": 53.6287561, "lon": 10.1669291969535, "art": 1, "PLZ": "22145", "Name": "KiTa Spitzbergenweg", "tempo30": 2, "Strasse": "Spitzbergenweg"}, {"Nummer": "100", "id": 374, "lat": 53.5465999, "lon": 9.9624383, "art": 1, "PLZ": "20359", "Name": "KiTa Lelka Birnbaum", "tempo30": 2, "Strasse": "St. Pauli Hafenstra\u00dfe"}, {"Nummer": "203c", "id": 375, "lat": 53.4696716, "lon": 9.93770160560529, "art": 4, "PLZ": "21075", "Name": "HELIOS Mariahilf Klinik Hamburg", "tempo30": 2, "Strasse": "Stader Stra\u00dfe"}, {"Nummer": "55a", "id": 376, "lat": 53.47954575, "lon": 9.8623288983821, "art": 1, "PLZ": "21147", "Name": "KiTa Wunderland", "tempo30": 2, "Strasse": "Francoper Stra\u00dfe"}, {"Nummer": "8", "id": 377, "lat": 53.65427785, "lon": 10.1091527821625, "art": 1, "PLZ": "22393", "Name": "KiTa Stadtbahnstra\u00dfe", "tempo30": 2, "Strasse": "Stadtbahnstra\u00dfe"}, {"Nummer": "28c", "id": 378, "lat": 53.6041852, "lon": 10.1908368, "art": 1, "PLZ": "22143", "Name": "Die Gnubbels", "tempo30": 2, "Strasse": "Stapelfelder Stra\u00dfe"}, {"Nummer": "9", "id": 379, "lat": 53.5547322, "lon": 9.9270068, "art": 1, "PLZ": "22765", "Name": "Kinderhaus Kunterbunt", "tempo30": 2, "Strasse": "Friedensallee"}, {"Nummer": "118", "id": 380, "lat": 53.5582591, "lon": 9.91705351375448, "art": 1, "PLZ": "22763", "Name": "KiTa Die Villa", "tempo30": 2, "Strasse": "Friedensallee"}, {"Nummer": "260", "id": 381, "lat": 53.5586505, "lon": 9.91364537333333, "art": 1, "PLZ": "22763", "Name": "Lorenzini Kunst-Kita Friedensallee", "tempo30": 2, "Strasse": "Friedensallee"}, {"Nummer": "501", "id": 382, "lat": 53.6087647, "lon": 10.0619206, "art": 1, "PLZ": "22179", "Name": "Spielstube", "tempo30": 2, "Strasse": "Steilshooper Allee"}, {"Nummer": "271", "id": 383, "lat": 53.55893035, "lon": 9.91071328092602, "art": 1, "PLZ": "22763", "Name": "Freie Kinderg\u00e4rten Elbvororte e.V.", "tempo30": 2, "Strasse": "Friedensallee"}, {"Nummer": "242a", "id": 384, "lat": 53.60073112203046, "lon": 10.051038314438738, "art": 1, "PLZ": "22307", "Name": "KiGa Die kleinen Strolche", "tempo30": 2, "Strasse": "Steilshooper Stra\u00dfe"}, {"Nummer": "14", "id": 385, "lat": 53.6197381, "lon": 9.9466206, "art": 1, "PLZ": "22459", "Name": "Deutsch-Spanischer Kindergarten \"La Cometa\"\"\"", "tempo30": 2, "Strasse": "Friedrich-Ebert-Stra\u00dfe"}, {"Nummer": "242", "id": 386, "lat": 53.60058681629357, "lon": 10.051136686263042, "art": 3, "PLZ": "22307", "Name": "Tagespflege Barmbek", "tempo30": 2, "Strasse": "Steilshooper Stra\u00dfe"}, {"Nummer": "18", "id": 387, "lat": 53.57554435, "lon": 10.0494777033649, "art": 1, "PLZ": "22081", "Name": "KiTa Frieberg", "tempo30": 2, "Strasse": "Friedrichsberger Stra\u00dfe"}, {"Nummer": "5", "id": 388, "lat": 53.636022032328384, "lon": 9.918293127515136, "art": 1, "PLZ": "22457", "Name": "KiTa K\u00e4ptn Kaninchen", "tempo30": 2, "Strasse": "Frohmestra\u00dfe"}, {"Nummer": "67", "id": 389, "lat": 53.6315646, "lon": 9.9242410099115, "art": 1, "PLZ": "22459", "Name": "KiTa K\u00e4ptn Kaninchen", "tempo30": 2, "Strasse": "Frohmestra\u00dfe"}, {"Nummer": "63a", "id": 390, "lat": 53.6318404, "lon": 9.92400985352711, "art": 1, "PLZ": "22459", "Name": "KiTa Kinderhaus Wundert\u00fcte", "tempo30": 2, "Strasse": "Frohmestra\u00dfe"}, {"Nummer": "121", "id": 391, "lat": 53.5722357, "lon": 9.9505516, "art": 1, "PLZ": "20259", "Name": "KiTa Fr\u00fcchtchen", "tempo30": 2, "Strasse": "Fruchtallee"}, {"Nummer": "124", "id": 392, "lat": 53.5728127, "lon": 9.9506211, "art": 1, "PLZ": "20259", "Name": "KiTa MiniMeter2", "tempo30": 2, "Strasse": "Fruchtallee"}, {"Nummer": "82-84", "id": 393, "lat": 53.573027, "lon": 9.9497478, "art": 3, "PLZ": "20259", "Name": "Haus am Wehbers Park,  Senioren- und\nTherapiezentrum", "tempo30": 2, "Strasse": "Fruchtallee"}, {"Nummer": "22", "id": 394, "lat": 53.573027, "lon": 9.9497478, "art": 1, "PLZ": "20259", "Name": "KiTa Kindervilla Fruchtallee", "tempo30": 2, "Strasse": "Fruchtallee"}, {"Nummer": "312", "id": 395, "lat": 53.5996488, "lon": 10.0418393, "art": 1, "PLZ": "22307", "Name": "KiTa Fuhlsb\u00fcttlerstra\u00dfe", "tempo30": 2, "Strasse": "Fuhlsb\u00fcttler Stra\u00dfe"}, {"Nummer": "405", "id": 396, "lat": 53.6033804, "lon": 10.0399527, "art": 1, "PLZ": "22309", "Name": "KiTa Fuhlinge", "tempo30": 2, "Strasse": "Fuhlsb\u00fcttler Stra\u00dfe"}, {"Nummer": "488", "id": 397, "lat": 53.60778655, "lon": 10.0395023761684, "art": 1, "PLZ": "22309", "Name": "KiTa Kunst-Kita Der kleine Prinz", "tempo30": 2, "Strasse": "Fuhlsb\u00fcttler Stra\u00dfe"}, {"Nummer": "743", "id": 398, "lat": 53.61951575, "lon": 10.0335090928266, "art": 1, "PLZ": "22337", "Name": "KiTa HeimatHafen", "tempo30": 2, "Strasse": "Fuhlsb\u00fcttler Stra\u00dfe"}, {"Nummer": "134", "id": 399, "lat": 53.5815211, "lon": 9.95590511451855, "art": 1, "PLZ": "22529", "Name": "Zwergenst\u00fcbchen", "tempo30": 2, "Strasse": "Stresemannallee"}, {"Nummer": "656a", "id": 400, "lat": 53.6145484, "lon": 10.0361950328186, "art": 1, "PLZ": "22337", "Name": "Ev. KiTa Ohlsdorf", "tempo30": 2, "Strasse": "Fuhlsb\u00fcttler Stra\u00dfe"}, {"Nummer": "103", "id": 401, "lat": 53.5914021, "lon": 9.9598645, "art": 1, "PLZ": "22529", "Name": "KiTa Troplo-Kids, Kindertagesst\u00e4tte der\nBeiersdorf AG", "tempo30": 2, "Strasse": "Stresemannallee"}, {"Nummer": "187", "id": 402, "lat": 53.6350458, "lon": 9.96636205, "art": 1, "PLZ": "22455", "Name": "KiGa Kinderstube Sethweg", "tempo30": 2, "Strasse": "Garstedter Weg"}, {"Nummer": "79", "id": 403, "lat": 53.62801775, "lon": 9.96116442179923, "art": 3, "PLZ": "22453", "Name": "Pflegewohnstift Garstedter Weg", "tempo30": 2, "Strasse": "Garstedter Weg"}, {"Nummer": "64/72", "id": 404, "lat": 53.58222033001279, "lon": 9.966163271394304, "art": 3, "PLZ": "20253", "Name": "Seniorenzentrum St. Markus -\nSeniorenwohnungen Eimsb\u00fcttel", "tempo30": 2, "Strasse": "G\u00e4rtnerstra\u00dfe"}, {"Nummer": "63", "id": 405, "lat": 53.58176865, "lon": 9.96670028666885, "art": 3, "PLZ": "20253", "Name": "Tagespflege St. Markus", "tempo30": 2, "Strasse": "G\u00e4rtnerstra\u00dfe"}, {"Nummer": "30", "id": 406, "lat": 53.5446899, "lon": 10.0289216, "art": 1, "PLZ": "20097", "Name": "KiTa Kids Castle", "tempo30": 2, "Strasse": "S\u00fcderstra\u00dfe"}, {"Nummer": "39", "id": 407, "lat": 53.57719975, "lon": 9.81561230375925, "art": 1, "PLZ": "22589", "Name": "Kuschelh\u00f6hle", "tempo30": 2, "Strasse": "S\u00fclldorfer Landstra\u00dfe"}, {"Nummer": "224", "id": 408, "lat": 53.58075855, "lon": 9.79271470089627, "art": 1, "PLZ": "22589", "Name": "Elbracker", "tempo30": 2, "Strasse": "S\u00fclldorfer Landstra\u00dfe"}, {"Nummer": "104", "id": 409, "lat": 53.57862825, "lon": 9.80851411211433, "art": 1, "PLZ": "22589", "Name": "KiTa Davidswagen", "tempo30": 2, "Strasse": "S\u00fclldorfer Landstra\u00dfe"}, {"Nummer": "300", "id": 410, "lat": 53.67065135, "lon": 10.0287037739774, "art": 2, "PLZ": "22417", "Name": "Grundschule Am Heidberg", "tempo30": 2, "Strasse": "Tangstedter Landstra\u00dfe"}, {"Nummer": "300", "id": 411, "lat": 53.67065135, "lon": 10.0287037739774, "art": 2, "PLZ": "22417", "Name": "Stadtteilschule Am Heidberg", "tempo30": 2, "Strasse": "Tangstedter Landstra\u00dfe"}, {"Nummer": "83", "id": 412, "lat": 53.6232932, "lon": 9.9154338855299, "art": 1, "PLZ": "22459", "Name": "KiTa Graf-Johann-Weg", "tempo30": 2, "Strasse": "Graf-Johann-Weg"}, {"Nummer": "152", "id": 413, "lat": 53.65605495, "lon": 10.0208791856556, "art": 1, "PLZ": "22417", "Name": "KiTa Tangstedter Landstra\u00dfe", "tempo30": 2, "Strasse": "Tangstedter Landstra\u00dfe"}, {"Nummer": "400", "id": 414, "lat": 53.6741441, "lon": 10.0301314651093, "art": 4, "PLZ": "22417", "Name": "Asklepios Klinik Nord - Heidberg (Somatik)", "tempo30": 2, "Strasse": "Tangstedter Landstra\u00dfe"}, {"Nummer": "109", "id": 415, "lat": 53.5983916, "lon": 9.98363054672099, "art": 1, "PLZ": "20251", "Name": "KiTa Baumhaus", "tempo30": 2, "Strasse": "Tarpenbekstra\u00dfe"}, {"Nummer": "133", "id": 416, "lat": 53.6001229, "lon": 9.98356683954518, "art": 1, "PLZ": "20251", "Name": "Ev. KiTa St. Martinus Eppendorf", "tempo30": 2, "Strasse": "Tarpenbekstra\u00dfe"}, {"Nummer": "23-25", "id": 417, "lat": 53.618088598508365, "lon": 10.146034581388209, "art": 3, "PLZ": "22147", "Name": "Haus Birkengrund", "tempo30": 2, "Strasse": "Greifenberger Stra\u00dfe"}, {"Nummer": "107", "id": 418, "lat": 53.5982203, "lon": 9.98187649464423, "art": 3, "PLZ": "20251", "Name": "Carl-Ninck-Haus", "tempo30": 2, "Strasse": "Tarpenbekstra\u00dfe"}, {"Nummer": "117", "id": 419, "lat": 53.5988953, "lon": 9.98337790245601, "art": 3, "PLZ": "20251", "Name": "Zinnendorf Stiftung", "tempo30": 2, "Strasse": "Tarpenbekstra\u00dfe"}, {"Nummer": "2h", "id": 420, "lat": 53.654075, "lon": 10.0675879060569, "art": 1, "PLZ": "22399", "Name": "AWO Kita L\u00f6wenzahn", "tempo30": 2, "Strasse": "Tegelsbarg"}, {"Nummer": "13a", "id": 421, "lat": 53.5735199, "lon": 9.976798, "art": 1, "PLZ": "20144", "Name": "KiTa Grindelberg", "tempo30": 2, "Strasse": "Grindelberg"}, {"Nummer": "32", "id": 422, "lat": 53.61106015, "lon": 10.0635662492388, "art": 1, "PLZ": "22309", "Name": "Kath. KiTa St. Johannis/ Steilshoop", "tempo30": 2, "Strasse": "Gr\u00fcndgensstra\u00dfe"}, {"Nummer": "4", "id": 423, "lat": 53.6105569, "lon": 10.062019, "art": 1, "PLZ": "22309", "Name": "KiTa Gustav-Seitz- Weg", "tempo30": 2, "Strasse": "Gustav-Seitz-Weg"}, {"Nummer": "11", "id": 424, "lat": 53.5020812, "lon": 10.2100991740171, "art": 1, "PLZ": "21031", "Name": "KiTa Spatzennest", "tempo30": 2, "Strasse": "Habermannstra\u00dfe"}, {"Nummer": "60", "id": 425, "lat": 53.5124507, "lon": 9.9871511, "art": 3, "PLZ": "21107", "Name": "Tagespflege Veringeck", "tempo30": 2, "Strasse": "Veringstra\u00dfe"}, {"Nummer": "108", "id": 426, "lat": 53.60095847245833, "lon": 10.07993931851547, "art": 1, "PLZ": "22179", "Name": "Bewegungskindergarten Sonnenblume", "tempo30": 2, "Strasse": "Haldesdorfer Stra\u00dfe"}, {"Nummer": "30", "id": 427, "lat": 53.5720564, "lon": 9.98118682397517, "art": 1, "PLZ": "20146", "Name": "KiTa \"Cocori\"\" spanisch-deutsche Kindertagesst\u00e4tte\"", "tempo30": 2, "Strasse": "Hallerstra\u00dfe"}, {"Nummer": "58", "id": 428, "lat": 53.5723143, "lon": 9.9843267, "art": 1, "PLZ": "20146", "Name": "KiTa Hallerstra\u00dfe", "tempo30": 2, "Strasse": "Hallerstra\u00dfe"}, {"Nummer": "76", "id": 429, "lat": 53.572391, "lon": 9.9869214, "art": 1, "PLZ": "20146", "Name": "KiTa Enfantine KinderKlub", "tempo30": 2, "Strasse": "Hallerstra\u00dfe"}, {"Nummer": "89", "id": 430, "lat": 53.57330035, "lon": 9.99122779958602, "art": 1, "PLZ": "20149", "Name": "KiGa Sterntaler", "tempo30": 2, "Strasse": "Hallerstra\u00dfe"}, {"Nummer": "15b", "id": 431, "lat": 53.59929650196815, "lon": 9.960764390842025, "art": 1, "PLZ": "22529", "Name": "KiTa K\u00e4ptn Kaninchen", "tempo30": 2, "Strasse": "Vogt-Wells-Stra\u00dfe"}, {"Nummer": "19", "id": 432, "lat": 53.5718421, "lon": 10.0289306, "art": 1, "PLZ": "22083", "Name": "FR\u00d6BEL-Kindergarten in der Hamburger Meile", "tempo30": 2, "Strasse": "Hamburger Stra\u00dfe"}, {"Nummer": "178", "id": 433, "lat": 53.5135973, "lon": 10.2147836, "art": 3, "PLZ": "22083", "Name": "Victoria Tagespflege LOIS GmbH", "tempo30": 2, "Strasse": "Hamburger Stra\u00dfe"}, {"Nummer": "84", "id": 434, "lat": 53.555108, "lon": 10.052184, "art": 1, "PLZ": "20537", "Name": "KiTa Wunderkabinett", "tempo30": 2, "Strasse": "Hammer Landstra\u00dfe"}, {"Nummer": "168", "id": 435, "lat": 53.55401505, "lon": 10.0588722896363, "art": 3, "PLZ": "20537", "Name": "Haus Hammer Landstra\u00dfe", "tempo30": 2, "Strasse": "Hammer Landstra\u00dfe"}, {"Nummer": "44", "id": 436, "lat": 53.5663151, "lon": 10.0565086, "art": 1, "PLZ": "22089", "Name": "KiTa \"Luisito\"\"\"", "tempo30": 2, "Strasse": "Hammer Steindamm"}, {"Nummer": "126", "id": 437, "lat": 53.6423601, "lon": 10.1152096989636, "art": 1, "PLZ": "22393", "Name": "KiTa Saselnest", "tempo30": 2, "Strasse": "Volksdorfer Weg"}, {"Nummer": "70", "id": 438, "lat": 53.6650193, "lon": 10.0749896104267, "art": 2, "PLZ": "22399", "Name": "Heinrich-Heine-Gymnasium", "tempo30": 2, "Strasse": "Harksheider Stra\u00dfe"}, {"Nummer": "156a", "id": 439, "lat": 53.667037387813934, "lon": 10.069059911632737, "art": 1, "PLZ": "22399", "Name": "Ev. KiGa Simon-Petrus", "tempo30": 2, "Strasse": "Harksheider Stra\u00dfe"}, {"Nummer": "38", "id": 440, "lat": 53.5731596, "lon": 10.0375628528503, "art": 1, "PLZ": "22081", "Name": "KiTa Wagnerstra\u00dfe", "tempo30": 2, "Strasse": "Wagnerstra\u00dfe"}, {"Nummer": "247", "id": 441, "lat": 53.568807510091055, "lon": 10.05278560155066, "art": 1, "PLZ": "22089", "Name": "De L\u00fctten H\u00fctt", "tempo30": 2, "Strasse": "Wandsbeker Chaussee"}, {"Nummer": "66", "id": 442, "lat": 53.566453200296344, "lon": 10.04006010893565, "art": 1, "PLZ": "22089", "Name": "KiTa Wandsbeker Chaussee", "tempo30": 2, "Strasse": "Wandsbeker Chaussee"}, {"Nummer": "105", "id": 443, "lat": 53.567485, "lon": 10.0439091, "art": 1, "PLZ": "22089", "Name": "KiTa Paula & Max", "tempo30": 2, "Strasse": "Wandsbeker Chaussee"}, {"Nummer": "103", "id": 444, "lat": 53.5731761, "lon": 10.0679933, "art": 1, "PLZ": "22041", "Name": "FR\u00d6BEL-Kindergarten Wandsbek Quarree", "tempo30": 2, "Strasse": "Wandsbeker Marktstra\u00dfe"}, {"Nummer": "65", "id": 445, "lat": 53.54902705, "lon": 10.0918608567308, "art": 1, "PLZ": "22111", "Name": "Ev. KiGa Timotheus-Gemeinde zu Horn", "tempo30": 2, "Strasse": "Washingtonallee"}, {"Nummer": "95", "id": 446, "lat": 53.61630565, "lon": 9.98631937753386, "art": 1, "PLZ": "22453", "Name": "KiTa Kinderpropeller", "tempo30": 2, "Strasse": "Weg beim J\u00e4ger"}, {"Nummer": "127", "id": 447, "lat": 53.6176788, "lon": 9.9894029, "art": 1, "PLZ": "22453", "Name": "SoF\u00f6 Wichtel KG", "tempo30": 2, "Strasse": "Weg beim J\u00e4ger"}, {"Nummer": "1b", "id": 448, "lat": 53.56938308980085, "lon": 9.866540427820398, "art": 1, "PLZ": "22609", "Name": "KiGa Rund und Bunt", "tempo30": 2, "Strasse": "Heinrich-Plett-Stra\u00dfe"}, {"Nummer": "43", "id": 449, "lat": 53.5776714, "lon": 10.0726247118229, "art": 1, "PLZ": "22041", "Name": "Schnucki Nucki", "tempo30": 2, "Strasse": "Wendemuthstra\u00dfe"}, {"Nummer": "66", "id": 450, "lat": 53.48764285, "lon": 10.2274327808948, "art": 1, "PLZ": "21029", "Name": "KiTa Integratives Kinderhaus Kunterbunt", "tempo30": 2, "Strasse": "Wentorfer Stra\u00dfe"}, {"Nummer": "26a", "id": 451, "lat": 53.486888492749635, "lon": 10.21879605671244, "art": 1, "PLZ": "21029", "Name": "KiTa M\u00e4useburg", "tempo30": 2, "Strasse": "Wentorfer Stra\u00dfe"}, {"Nummer": "70", "id": 452, "lat": 53.4877875, "lon": 10.2282818623309, "art": 3, "PLZ": "21029", "Name": "Bei Philipps  -  Tagespflege", "tempo30": 2, "Strasse": "Wentorfer Stra\u00dfe"}, {"Nummer": "70", "id": 453, "lat": 53.4877875, "lon": 10.2282818623309, "art": 3, "PLZ": "21029", "Name": "Altenpension Philipps", "tempo30": 2, "Strasse": "Wentorfer Stra\u00dfe"}, {"Nummer": "47", "id": 454, "lat": 53.6213157, "lon": 10.1423726, "art": 1, "PLZ": "22147", "Name": "KiTa Rappelkiste II", "tempo30": 2, "Strasse": "Hermann-Balk-Stra\u00dfe"}, {"Nummer": "3", "id": 455, "lat": 53.5739912, "lon": 9.9490618, "art": 1, "PLZ": "20257", "Name": "Pusteblume", "tempo30": 2, "Strasse": "Heu\u00dfweg"}, {"Nummer": "25", "id": 456, "lat": 53.5742514, "lon": 9.9499665, "art": 1, "PLZ": "20255", "Name": "KiTa Heu\u00dfweg", "tempo30": 2, "Strasse": "Heu\u00dfweg"}, {"Nummer": "58", "id": 457, "lat": 53.6059777, "lon": 10.0132313, "art": 1, "PLZ": "22297", "Name": "Nannys for Kids", "tempo30": 2, "Strasse": "Hindenburgstra\u00dfe"}, {"Nummer": "66", "id": 458, "lat": 53.4512986, "lon": 9.9876407, "art": 1, "PLZ": "21077", "Name": "KiTa Zauberwiese", "tempo30": 2, "Strasse": "Winsener Stra\u00dfe"}, {"Nummer": "152", "id": 459, "lat": 53.43161795, "lon": 9.98294148215401, "art": 1, "PLZ": "21077", "Name": "KiGa Sinstorfer Kinderstube", "tempo30": 2, "Strasse": "Winsener Stra\u00dfe"}, {"Nummer": "11", "id": 460, "lat": 53.572037, "lon": 10.0244979424392, "art": 2, "PLZ": "22085", "Name": "ReBBZ Winterhude", "tempo30": 2, "Strasse": "Winterhuder Weg"}, {"Nummer": "11", "id": 461, "lat": 53.572037, "lon": 10.0244979424392, "art": 1, "PLZ": "22085", "Name": "KiTa Integrative Kindertagesst\u00e4tte\nBrummkreisel", "tempo30": 2, "Strasse": "Winterhuder Weg"}, {"Nummer": "79", "id": 462, "lat": 53.57568715, "lon": 10.0150789093857, "art": 1, "PLZ": "22085", "Name": "KiGa Kinderinsel auf der Uhlenhorst", "tempo30": 2, "Strasse": "Hofweg"}, {"Nummer": "98-106", "id": 463, "lat": 53.576136058785444, "lon": 10.02066429372214, "art": 3, "PLZ": "22085", "Name": "Evangelisch-reformierte Stiftung   Altenhof", "tempo30": 2, "Strasse": "Winterhuder Weg"}, {"Nummer": "11", "id": 464, "lat": 53.572037, "lon": 10.0244979424392, "art": 1, "PLZ": "22085", "Name": "KiTa Winterhuder Weg", "tempo30": 2, "Strasse": "Winterhuder Weg"}, {"Nummer": "115", "id": 465, "lat": 53.5829783, "lon": 9.9703584, "art": 1, "PLZ": "20253", "Name": "KiTa Paula und Max", "tempo30": 2, "Strasse": "Hoheluftchaussee"}, {"Nummer": "95a", "id": 466, "lat": 53.582393269582234, "lon": 9.970281537994136, "art": 1, "PLZ": "20253", "Name": "KiTa Manuelita", "tempo30": 2, "Strasse": "Hoheluftchaussee"}, {"Nummer": "67", "id": 467, "lat": 53.5534989, "lon": 9.9172966, "art": 1, "PLZ": "22763", "Name": "KiTa Tabita an der Kreuzkirche", "tempo30": 2, "Strasse": "Hohenzollernring"}, {"Nummer": "15", "id": 468, "lat": 53.54831555, "lon": 9.91705852373262, "art": 3, "PLZ": "22763", "Name": "Tagespflege Ottensen", "tempo30": 2, "Strasse": "Hohenzollernring"}, {"Nummer": "19", "id": 469, "lat": 53.59825595, "lon": 9.93105470811259, "art": 1, "PLZ": "22527", "Name": "Ev. KiTa Alten Eichen", "tempo30": 2, "Strasse": "W\u00f6rdemanns Weg"}, {"Nummer": "23", "id": 470, "lat": 53.59844455, "lon": 9.92951928623167, "art": 3, "PLZ": "22527", "Name": "Tagespflege Alten Eichen Stellingen", "tempo30": 2, "Strasse": "W\u00f6rdemanns Weg"}, {"Nummer": "6", "id": 471, "lat": 53.5581872, "lon": 9.97682811979899, "art": 2, "PLZ": "20355", "Name": "Abendschule Vor dem Holstentor", "tempo30": 2, "Strasse": "Holstenglacis"}, {"Nummer": "6", "id": 472, "lat": 53.5581872, "lon": 9.97682811979899, "art": 2, "PLZ": "20355", "Name": "Studienkolleg f\u00fcr ausl\u00e4ndische Studierende", "tempo30": 2, "Strasse": "Holstenglacis"}, {"Nummer": "86", "id": 473, "lat": 53.56629925, "lon": 10.1058265600708, "art": 2, "PLZ": "22043", "Name": "Gymnasium Marienthal", "tempo30": 2, "Strasse": "Holstenhofweg"}, {"Nummer": "20", "id": 474, "lat": 53.552864068020824, "lon": 9.954561476006077, "art": 1, "PLZ": "22767", "Name": "KiTa Kinderladen Maimouna", "tempo30": 2, "Strasse": "Holstenstra\u00dfe"}, {"Nummer": "156", "id": 475, "lat": 53.558985969002734, "lon": 9.948560695499209, "art": 1, "PLZ": "22765", "Name": "KiTa K\u00fcstenkinder", "tempo30": 2, "Strasse": "Holstenstra\u00dfe"}, {"Nummer": "168", "id": 476, "lat": 53.55966, "lon": 9.9484055236583, "art": 1, "PLZ": "22765", "Name": "KiTa Villa Vivendi 1", "tempo30": 2, "Strasse": "Holstenstra\u00dfe"}, {"Nummer": "2", "id": 477, "lat": 53.55127721613993, "lon": 9.955266840006882, "art": 4, "PLZ": "22767", "Name": "Helios Endo-Klinik Hamburg", "tempo30": 2, "Strasse": "Holstenstra\u00dfe"}, {"Nummer": "53", "id": 478, "lat": 53.5816193, "lon": 10.0806267, "art": 1, "PLZ": "22041", "Name": "Windelliga", "tempo30": 2, "Strasse": "Holzm\u00fchlenstra\u00dfe"}, {"Nummer": "302", "id": 479, "lat": 53.5470336, "lon": 10.0852947, "art": 1, "PLZ": "22111", "Name": "KiTa Sunshine", "tempo30": 2, "Strasse": "Horner Landstra\u00dfe"}, {"Nummer": "162", "id": 480, "lat": 53.5820385, "lon": 10.1092362, "art": 1, "PLZ": "22045", "Name": "KiTa \"Die H\u00f6rnchen\"\"\"", "tempo30": 2, "Strasse": "Ahrensburger Stra\u00dfe"}, {"Nummer": "19a", "id": 481, "lat": 53.584213387614476, "lon": 10.041316658700337, "art": 1, "PLZ": "22083", "Name": "Ev. KiTa Alt-Barmbek", "tempo30": 2, "Strasse": "Hufnerstra\u00dfe"}, {"Nummer": "3", "id": 482, "lat": 53.63389315188218, "lon": 10.019398244411711, "art": 1, "PLZ": "22335", "Name": "Ev. KiGa St. Lukas", "tempo30": 2, "Strasse": "Hummelsb\u00fctteler Kirchenweg"}, {"Nummer": "34", "id": 483, "lat": 53.6420416, "lon": 10.04432245, "art": 1, "PLZ": "22339", "Name": "Kinderkrippe Mikuteit", "tempo30": 2, "Strasse": "Hummelsb\u00fctteler Weg"}, {"Nummer": "57", "id": 484, "lat": 53.6416666, "lon": 10.0374743893748, "art": 1, "PLZ": "22339", "Name": "KiTa Alstertal", "tempo30": 2, "Strasse": "Hummelsb\u00fcttler Hauptstra\u00dfe"}, {"Nummer": "3a", "id": 485, "lat": 53.5629697918975, "lon": 9.94881586057629, "art": 1, "PLZ": "22769", "Name": "KiTa Aktive Erdm\u00e4nnchen", "tempo30": 2, "Strasse": "Alsenstra\u00dfe"}, {"Nummer": "39", "id": 486, "lat": 53.5961486, "lon": 9.99629993175867, "art": 2, "PLZ": "22299", "Name": "Schule Alsterdorfer Stra\u00dfe", "tempo30": 2, "Strasse": "Alsterdorfer Stra\u00dfe"}, {"Nummer": "72a", "id": 487, "lat": 53.6419773, "lon": 10.0387780245957, "art": 1, "PLZ": "22339", "Name": "KiGa Petra Mikuteit", "tempo30": 2, "Strasse": "Hummelsb\u00fcttler Hauptstra\u00dfe"}, {"Nummer": "420", "id": 488, "lat": 53.61372775, "lon": 10.021339543066, "art": 2, "PLZ": "22297", "Name": "Kurt-Juster-Schule", "tempo30": 2, "Strasse": "Alsterdorfer Stra\u00dfe"}, {"Nummer": "562", "id": 489, "lat": 53.6194767, "lon": 10.0322772, "art": 1, "PLZ": "22337", "Name": "KiTa Deutsch-Spanischer Kindergarten", "tempo30": 2, "Strasse": "Alsterdorfer Stra\u00dfe"}, {"Nummer": "614", "id": 490, "lat": 53.6337339, "lon": 10.0161039551913, "art": 3, "PLZ": "22335", "Name": "Pflegewohnstift Alsterkrugchaussee", "tempo30": 2, "Strasse": "Alsterkrugchaussee"}, {"Nummer": "16", "id": 491, "lat": 53.56735625, "lon": 9.82889404643018, "art": 3, "PLZ": "22589", "Name": "Hermann und Lilly Schilling-Stiftung", "tempo30": 2, "Strasse": "Isfeldstra\u00dfe"}, {"Nummer": "30", "id": 492, "lat": 53.5694995, "lon": 9.831253, "art": 3, "PLZ": "22589", "Name": "Rosenhof Hamburg", "tempo30": 2, "Strasse": "Isfeldstra\u00dfe"}, {"Nummer": "10", "id": 493, "lat": 53.5839414, "lon": 10.0218331, "art": 1, "PLZ": "22303", "Name": "KiTa H\u00f6lderlinsallee", "tempo30": 2, "Strasse": "Jarrestra\u00dfe"}, {"Nummer": "59", "id": 494, "lat": 53.5859014, "lon": 10.0274809, "art": 1, "PLZ": "22303", "Name": "KiTa Jarrestra\u00dfe", "tempo30": 2, "Strasse": "Jarrestra\u00dfe"}, {"Nummer": "6", "id": 495, "lat": 53.5838472, "lon": 10.0206935, "art": 4, "PLZ": "22303", "Name": "Verhaltenstherapie Falkenried", "tempo30": 2, "Strasse": "Jarrestra\u00dfe"}, {"Nummer": "7", "id": 496, "lat": 53.484929, "lon": 10.2170512745538, "art": 2, "PLZ": "21029", "Name": "Rudolf-Steiner-Schule Bergedorf", "tempo30": 2, "Strasse": "Am Brink"}, {"Nummer": "75", "id": 497, "lat": 53.5861772, "lon": 10.0290728, "art": 3, "PLZ": "22303", "Name": "Das Epiphanienhaus", "tempo30": 2, "Strasse": "Jarrestra\u00dfe"}, {"Nummer": "7", "id": 498, "lat": 53.484929, "lon": 10.2170512745538, "art": 1, "PLZ": "21029", "Name": "Hort der Rudolf-Steiner-Schule Bergedorf", "tempo30": 2, "Strasse": "Am Brink"}, {"Nummer": "53", "id": 499, "lat": 53.57914175, "lon": 10.1260728470593, "art": 2, "PLZ": "22043", "Name": "Otto-Hahn-Schule", "tempo30": 2, "Strasse": "Jenfelder Allee"}, {"Nummer": "49", "id": 500, "lat": 53.57759625, "lon": 10.1271618758172, "art": 1, "PLZ": "22043", "Name": "KiTa Jenfelder Allee", "tempo30": 2, "Strasse": "Jenfelder Allee"}, {"Nummer": "236", "id": 501, "lat": 53.57535731299091, "lon": 10.129851642971664, "art": 1, "PLZ": "22045", "Name": "KiTa Weltentdecker", "tempo30": 2, "Strasse": "Jenfelder Stra\u00dfe"}, {"Nummer": "10", "id": 502, "lat": 53.550912, "lon": 9.9440646, "art": 1, "PLZ": "22767", "Name": "KiTa Internationaler Kinderladen", "tempo30": 2, "Strasse": "Jessenstra\u00dfe"}, {"Nummer": "10", "id": 503, "lat": 53.5832628, "lon": 9.9507838, "art": 3, "PLZ": "22527", "Name": "Seniorenwohnanlage Lokstedt", "tempo30": 2, "Strasse": "Julius-Vosseler-Stra\u00dfe"}, {"Nummer": "40", "id": 504, "lat": 53.5943154, "lon": 9.94625630300621, "art": 3, "PLZ": "22527", "Name": "ASH Haus Vitalis", "tempo30": 2, "Strasse": "Julius-Vosseler-Stra\u00dfe"}, {"Nummer": "3", "id": 505, "lat": 53.5577353, "lon": 9.9836964, "art": 1, "PLZ": "20355", "Name": "KiTa Murmel", "tempo30": 2, "Strasse": "Jungiusstra\u00dfe"}, {"Nummer": "6", "id": 506, "lat": 53.5593362, "lon": 9.98347676497981, "art": 1, "PLZ": "20355", "Name": "Kindertagesst\u00e4tte an der Bucerius Law School", "tempo30": 2, "Strasse": "Jungiusstra\u00dfe"}, {"Nummer": "60", "id": 507, "lat": 53.4847599, "lon": 10.2359919743407, "art": 3, "PLZ": "21029", "Name": "Georg-Behrmann-Stiftung", "tempo30": 2, "Strasse": "Justus-Brinckmann-Stra\u00dfe"}, {"Nummer": "71", "id": 508, "lat": 53.5688272, "lon": 10.0887283, "art": 4, "PLZ": "22043", "Name": "Asklepios Klinik Nord - Wandsbek (Psychiatrie)", "tempo30": 2, "Strasse": "J\u00fcthornstra\u00dfe"}, {"Nummer": "35", "id": 509, "lat": 53.5622028, "lon": 9.9758981, "art": 1, "PLZ": "20357", "Name": "KiTa Karolinenstra\u00dfe", "tempo30": 2, "Strasse": "Karolinenstra\u00dfe"}, {"Nummer": "366", "id": 510, "lat": 53.58939505, "lon": 9.93227099920003, "art": 1, "PLZ": "22525", "Name": "Krippe & Kita Bunte Erdm\u00e4nnchen", "tempo30": 2, "Strasse": "Kieler Stra\u00dfe"}, {"Nummer": "602", "id": 511, "lat": 53.60189605, "lon": 9.91430175472975, "art": 1, "PLZ": "22525", "Name": "KiTa Kindervilla Sola Bona", "tempo30": 2, "Strasse": "Kieler Stra\u00dfe"}, {"Nummer": "51", "id": 512, "lat": 53.589326, "lon": 10.1799118044099, "art": 1, "PLZ": "22149", "Name": "Ev. KiTa Rahlstedt-Ost", "tempo30": 2, "Strasse": "Kielkoppelstra\u00dfe"}, {"Nummer": "9b", "id": 513, "lat": 53.5909015, "lon": 10.1661038867554, "art": 1, "PLZ": "22149", "Name": "KiTa Ton und Klang", "tempo30": 2, "Strasse": "Kielkoppelstra\u00dfe"}, {"Nummer": "248", "id": 514, "lat": 53.44425315, "lon": 10.1734470614362, "art": 1, "PLZ": "21037", "Name": "KiGa Grash\u00fcpfer", "tempo30": 2, "Strasse": "Kirchwerder Landweg"}, {"Nummer": "50", "id": 515, "lat": 53.5661821, "lon": 9.96680125142787, "art": 1, "PLZ": "20357", "Name": "caballito Blanco", "tempo30": 2, "Strasse": "Kleiner Sch\u00e4ferkamp"}, {"Nummer": "43", "id": 516, "lat": 53.56674932884293, "lon": 9.96843917141611, "art": 3, "PLZ": "20357", "Name": "Elisabeth Alten- und Pflegeheim der Freimaurer\nvon 1795 e.V.", "tempo30": 2, "Strasse": "Kleiner Sch\u00e4ferkamp"}, {"Nummer": "6", "id": 517, "lat": 53.6006242, "lon": 9.9639848, "art": 1, "PLZ": "22529", "Name": "KiTa Kleine Entdecker", "tempo30": 2, "Strasse": "Kollaustra\u00dfe"}, {"Nummer": "67", "id": 518, "lat": 53.60449565, "lon": 9.96108558805066, "art": 1, "PLZ": "22529", "Name": "KiTa Mucklas", "tempo30": 2, "Strasse": "Kollaustra\u00dfe"}, {"Nummer": "241", "id": 519, "lat": 53.6169873, "lon": 9.9504179, "art": 1, "PLZ": "22453", "Name": "Ev. Regenbogen-Kindergarten Niendorf-Markt", "tempo30": 2, "Strasse": "Kollaustra\u00dfe"}, {"Nummer": "11a", "id": 520, "lat": 53.5491123, "lon": 9.9519612, "art": 1, "PLZ": "22767", "Name": "KiTa Kleine Hexe", "tempo30": 2, "Strasse": "K\u00f6nigstra\u00dfe"}, {"Nummer": "23", "id": 521, "lat": 53.583187750015185, "lon": 10.055879968907126, "art": 3, "PLZ": "22049", "Name": "Tagespflege Dulsberg im Haus am Kanal", "tempo30": 2, "Strasse": "Krausestra\u00dfe"}, {"Nummer": "107", "id": 522, "lat": 53.6472165, "lon": 10.0001812951826, "art": 2, "PLZ": "22415", "Name": "Schule Krohnstieg", "tempo30": 2, "Strasse": "Krohnstieg"},